"cod6","cod7","municipio","UF","idhm","idhm_renda","idhm_longev","idhm_edu","pop","lat","long","alt"
"110001",1100015,"Alta Floresta D'Oeste","RO",0.641,0.657,0.763,0.526,24392,-11.9355403043823,-61.9998238962936,337.735719
"110002",1100023,"Ariquemes","RO",0.702,0.716,0.806,0.6,90353,-9.90846286624693,-63.0332692780484,138.688981
"110003",1100031,"Cabixi","RO",0.65,0.65,0.757,0.559,6313,-13.4997634592674,-60.5443135812009,236.06316
"110004",1100049,"Cacoal","RO",0.718,0.727,0.821,0.62,78574,-11.433865028318,-61.4429442118224,177.453547
"110005",1100056,"Cerejeiras","RO",0.692,0.688,0.799,0.602,17029,-13.19503303162,-60.8184261646815,262.811307
"110006",1100064,"Colorado do Oeste","RO",0.685,0.676,0.814,0.584,18591,-13.1305638410373,-60.5550674630789,419.090613
"110007",1100072,"Corumbiara","RO",0.613,0.63,0.774,0.473,8783,-12.9975202360694,-60.9487011706614,269.171178
"110008",1100080,"Costa Marques","RO",0.611,0.616,0.751,0.493,13678,-12.4360138773168,-64.2316539391172,145.213903
"110009",1100098,"Espigão D'Oeste","RO",0.672,0.691,0.819,0.536,28729,-11.5285546329773,-61.0201731132847,262.527225
"110010",1100106,"Guajará-Mirim","RO",0.657,0.663,0.823,0.519,41656,-10.7738837403235,-65.3239518196923,133.414381
"110011",1100114,"Jaru","RO",0.689,0.687,0.825,0.577,52005,-10.4359487675478,-62.4762307081317,162.551328
"110012",1100122,"Ji-Paraná","RO",0.714,0.728,0.81,0.617,116610,-10.8820513179987,-61.9450945826841,157.262673
"110013",1100130,"Machadinho D'Oeste","RO",0.596,0.629,0.755,0.446,31135,-9.42556247969476,-61.9995925724466,144.19909
"110014",1100148,"Nova Brasilândia D'Oeste","RO",0.643,0.664,0.763,0.524,19874,-11.72132541348,-62.308230163019,259.417475
"110015",1100155,"Ouro Preto do Oeste","RO",0.682,0.687,0.812,0.569,37928,-10.7235739004681,-62.2610551904363,252.167649
"110018",1100189,"Pimenta Bueno","RO",0.71,0.726,0.803,0.613,33822,-11.6775369896255,-61.183665673642,186.174033
"110020",1100205,"Porto Velho","RO",0.736,0.764,0.819,0.638,428527,-8.76889178971532,-63.8314456543611,86.895415
"110025",1100254,"Presidente Médici","RO",0.664,0.671,0.792,0.55,22319,-11.1732050158676,-61.9094386835298,178.222375
"110026",1100262,"Rio Crespo","RO",0.643,0.637,0.813,0.513,3316,-9.70553670942552,-62.9000103659589,124.322215
"110028",1100288,"Rolim de Moura","RO",0.7,0.709,0.808,0.598,50648,-11.7222589130049,-61.7857809351854,226.711103
"110029",1100296,"Santa Luzia D'Oeste","RO",0.67,0.657,0.812,0.564,8886,-11.9084233320875,-61.7733054630545,265.234157
"110030",1100304,"Vilhena","RO",0.731,0.734,0.808,0.659,76202,-12.7413734713965,-60.1385838660987,595.093769
"110032",1100320,"São Miguel do Guaporé","RO",0.646,0.644,0.781,0.537,21828,-11.6994897434308,-62.7200634814364,191.082628
"110033",1100338,"Nova Mamoré","RO",0.587,0.619,0.769,0.424,22546,-10.4117712943643,-65.3291490231467,150.930604
"110034",1100346,"Alvorada D'Oeste","RO",0.643,0.654,0.763,0.534,16853,-11.344130023069,-62.2772748656972,182.40013
"110037",1100379,"Alto Alegre dos Parecis","RO",0.592,0.603,0.777,0.443,12816,-12.1317772241827,-61.853077168603,396.560544
"110040",1100403,"Alto Paraíso","RO",0.625,0.664,0.804,0.457,17135,-9.71666673776296,-63.3176294334976,128.000112
"110045",1100452,"Buritis","RO",0.616,0.65,0.751,0.479,32383,-10.209805406906,-63.8296787917565,153.171166
"110050",1100502,"Novo Horizonte do Oeste","RO",0.634,0.606,0.799,0.527,10240,-11.7097429196397,-61.9943876627606,229.511705
"110060",1100601,"Cacaulândia","RO",0.646,0.664,0.801,0.506,5736,-10.3388728390592,-62.9031899345687,161.056558
"110070",1100700,"Campo Novo de Rondônia","RO",0.593,0.667,0.772,0.404,12665,-10.5684164690079,-63.6249914265426,206.148936
"110080",1100809,"Candeias do Jamari","RO",0.649,0.652,0.819,0.512,19779,-8.78502070319229,-63.7000200718298,84.750219
"110090",1100908,"Castanheiras","RO",0.658,0.65,0.803,0.547,3575,-11.4268422250956,-61.9491611964662,214.995394
"110092",1100924,"Chupinguaia","RO",0.652,0.659,0.82,0.514,8301,-12.5568407606929,-60.9018477499554,340.299631
"110094",1100940,"Cujubim","RO",0.612,0.663,0.789,0.439,15854,-9.37819339875335,-62.587174531921,110.959894
"110100",1101005,"Governador Jorge Teixeira","RO",0.596,0.627,0.762,0.444,10512,-10.6120717722655,-62.7404576394632,201.781008
"110110",1101104,"Itapuã do Oeste","RO",0.614,0.633,0.751,0.488,8566,-9.19187167502991,-63.1823370165183,98.95108
"110120",1101203,"Ministro Andreazza","RO",0.638,0.647,0.776,0.518,10352,-11.1962379837992,-61.5189219301054,266.291526
"110130",1101302,"Mirante da Serra","RO",0.643,0.673,0.8,0.494,11878,-11.0456092895817,-62.6694270952566,211.815643
"110140",1101401,"Monte Negro","RO",0.607,0.645,0.762,0.454,14091,-10.2630977555518,-63.2955591672175,155.400337
"110143",1101435,"Nova União","RO",0.587,0.608,0.753,0.442,7493,-10.9155320413115,-62.55508939888,241.493724
"110145",1101450,"Parecis","RO",0.617,0.604,0.8,0.485,4810,-12.1798270503181,-61.5979979726776,296.282838
"110146",1101468,"Pimenteiras do Oeste","RO",0.665,0.662,0.816,0.545,2315,-13.4765620020333,-61.0443790025384,170.255529
"110147",1101476,"Primavera de Rondônia","RO",0.641,0.645,0.799,0.512,3524,-11.8257069538678,-61.3165462429165,244.567351
"110148",1101484,"São Felipe D'Oeste","RO",0.649,0.615,0.78,0.571,6018,-11.9143893543069,-61.5125081133327,269.726767
"110149",1101492,"São Francisco do Guaporé","RO",0.611,0.657,0.751,0.462,16035,-12.0637984118473,-63.5708647107649,165.693726
"110150",1101500,"Seringueiras","RO",0.598,0.644,0.779,0.427,11629,-11.7671166352298,-63.0387609977072,185.830878
"110155",1101559,"Teixeirópolis","RO",0.643,0.653,0.818,0.498,4888,-10.9321692856881,-62.2559222539546,191.34936
"110160",1101609,"Theobroma","RO",0.589,0.622,0.757,0.434,10649,-10.2487305516953,-62.3451455299349,191.598548
"110170",1101708,"Urupá","RO",0.609,0.621,0.772,0.471,12974,-11.1285452753216,-62.3706324537667,197.170024
"110175",1101757,"Vale do Anari","RO",0.584,0.626,0.756,0.421,9384,-9.85139270774329,-62.1768234421278,157.665353
"110180",1101807,"Vale do Paraíso","RO",0.627,0.641,0.792,0.485,8210,-10.43105268422,-62.1343903568099,153.994474
"120001",1200013,"Acrelândia","AC",0.604,0.584,0.808,0.466,12538,-10.0737938921381,-67.0523165800206,205.894014
"120005",1200054,"Assis Brasil","AC",0.588,0.578,0.77,0.456,6072,-10.942865680565,-69.5634591746677,234.866835
"120010",1200104,"Brasiléia","AC",0.614,0.619,0.77,0.485,21398,-11.0164110187314,-68.7479434259584,188.324139
"120013",1200138,"Bujari","AC",0.589,0.603,0.772,0.439,8471,-9.82001962639185,-67.9518592792015,198.174197
"120017",1200179,"Capixaba","AC",0.575,0.601,0.794,0.398,8798,-10.5697677084521,-67.6735079719432,212.303309
"120020",1200203,"Cruzeiro do Sul","AC",0.664,0.648,0.776,0.582,78507,-7.63069000476114,-72.6725313174358,183.079525
"120025",1200252,"Epitaciolândia","AC",0.653,0.654,0.771,0.553,15100,-11.0282398276016,-68.7448680666749,206.036126
"120030",1200302,"Feijó","AC",0.539,0.559,0.723,0.388,32412,-8.16024752973452,-70.3539836082165,159.822497
"120032",1200328,"Jordão","AC",0.469,0.499,0.731,0.283,6577,-9.1933578595305,-71.9508751248365,264.977881
"120033",1200336,"Mâncio Lima","AC",0.625,0.58,0.77,0.546,15206,-7.59322259361088,-72.9165010261308,187.065998
"120034",1200344,"Manoel Urbano","AC",0.551,0.586,0.767,0.373,7981,-8.83631773660487,-69.2599445775075,162.133821
"120035",1200351,"Marechal Thaumaturgo","AC",0.501,0.479,0.726,0.361,14227,-8.95359112286319,-72.7902659086983,214.910605
"120038",1200385,"Plácido de Castro","AC",0.622,0.593,0.786,0.517,17209,-10.3351332824092,-67.1882600861516,129.189484
"120039",1200393,"Porto Walter","AC",0.532,0.521,0.726,0.397,9176,-8.26666636255869,-72.7423339648033,201.805961
"120040",1200401,"Rio Branco","AC",0.727,0.729,0.798,0.661,336038,-9.97829875240255,-67.8105287004235,137.865746
"120042",1200427,"Rodrigues Alves","AC",0.567,0.518,0.736,0.477,14389,-7.73360203347127,-72.6478549141997,189.585426
"120043",1200435,"Santa Rosa do Purus","AC",0.517,0.519,0.781,0.34,4691,-9.44340653710605,-70.4864968937616,216.72423
"120045",1200450,"Senador Guiomard","AC",0.64,0.649,0.786,0.513,20179,-10.1481735858712,-67.7431723600051,207.924797
"120050",1200500,"Sena Madureira","AC",0.603,0.593,0.81,0.456,38029,-9.06533950470602,-68.655684061692,132.133034
"120060",1200609,"Tarauacá","AC",0.539,0.554,0.72,0.392,35590,-8.15566859150029,-70.7555010628937,172.144466
"120070",1200708,"Xapuri","AC",0.599,0.621,0.773,0.448,16091,-10.6520719399922,-68.5062948050463,173.281643
"120080",1200807,"Porto Acre","AC",0.576,0.593,0.771,0.418,14880,-9.60085823087717,-67.5405900835194,134.322793
"130002",1300029,"Alvarães","AM",0.527,0.499,0.778,0.377,14088,-3.21658376896053,-64.8135346775686,46.116014
"130006",1300060,"Amaturá","AM",0.56,0.499,0.773,0.455,9467,-3.36680518739482,-68.2096146409404,73.447708
"130008",1300086,"Anamã","AM",0.594,0.537,0.741,0.526,10214,-3.57637042677263,-61.4059034797501,21.613748
"130010",1300102,"Anori","AM",0.561,0.54,0.757,0.433,16317,-3.74538558599572,-61.6589553828779,20.346246
"130014",1300144,"Apuí","AM",0.637,0.621,0.772,0.54,18007,-7.19787015137271,-59.8856661047188,132.98111
"130020",1300201,"Atalaia do Norte","AM",0.45,0.481,0.733,0.259,15153,-4.3661574895726,-70.1879892845226,76.016638
"130030",1300300,"Autazes","AM",0.577,0.539,0.799,0.446,32135,-3.57866364165355,-59.1335670918168,20.491551
"130040",1300409,"Barcelos","AM",0.5,0.545,0.728,0.315,25718,-0.972801052500113,-62.9256696581026,35.36196
"130050",1300508,"Barreirinha","AM",0.574,0.469,0.774,0.522,27355,-2.79814983683766,-57.0677504898938,11.234609
"130060",1300607,"Benjamin Constant","AM",0.574,0.526,0.763,0.471,33411,-4.37498901846019,-70.0273484332765,69.803811
"130063",1300631,"Beruri","AM",0.506,0.512,0.731,0.346,15486,-3.89451340969001,-61.3715708916659,22.862003
"130068",1300680,"Boa Vista do Ramos","AM",0.565,0.496,0.75,0.484,14979,-2.97172653149152,-57.5877073464737,23.018048
"130070",1300706,"Boca do Acre","AM",0.588,0.576,0.777,0.455,30632,-8.75124319580966,-67.3995777566805,106.766033
"130080",1300805,"Borba","AM",0.56,0.532,0.776,0.425,34961,-4.39061989132849,-59.5945590194969,29.014905
"130083",1300839,"Caapiranga","AM",0.569,0.544,0.775,0.436,10975,-3.33009339183202,-61.2113341331817,20.16684
"130090",1300904,"Canutama","AM",0.53,0.522,0.752,0.379,12738,-6.52910607561267,-64.3942308189288,52.008963
"130100",1301001,"Carauari","AM",0.549,0.534,0.745,0.416,25774,-4.88166590404391,-66.8966352816837,66.15796
"130110",1301100,"Careiro","AM",0.557,0.515,0.779,0.431,32734,-3.8224472699203,-60.3638098437089,25.175384
"130115",1301159,"Careiro da Várzea","AM",0.568,0.523,0.779,0.45,23930,-3.19739659476436,-59.8263140608339,19.228559
"130120",1301209,"Coari","AM",0.586,0.606,0.78,0.425,75965,-4.08421915864164,-63.1421839840562,37.939947
"130130",1301308,"Codajás","AM",0.563,0.546,0.775,0.421,23206,-3.84304593261256,-62.0634296604883,28.155367
"130140",1301407,"Eirunepé","AM",0.563,0.548,0.756,0.431,30665,-6.66735256663392,-69.8662902624416,122.174399
"130150",1301506,"Envira","AM",0.509,0.521,0.727,0.349,16338,-7.43981754372578,-70.0304125429825,137.396301
"130160",1301605,"Fonte Boa","AM",0.53,0.518,0.719,0.4,22817,-2.51227068446504,-66.0965029898347,58.147019
"130165",1301654,"Guajará","AM",0.532,0.51,0.762,0.387,13974,-7.54777441458756,-72.5824305383396,182.751246
"130170",1301704,"Humaitá","AM",0.605,0.621,0.791,0.451,44227,-7.51222495036648,-63.0266980219283,55.017452
"130180",1301803,"Ipixuna","AM",0.481,0.476,0.772,0.302,22254,-7.05098011420702,-71.6944180603084,156.327962
"130185",1301852,"Iranduba","AM",0.613,0.607,0.799,0.476,40781,-3.28105387749892,-60.1933881661307,43.223118
"130190",1301902,"Itacoatiara","AM",0.644,0.618,0.811,0.534,86839,-3.14037880381298,-58.4401754367572,21.659418
"130195",1301951,"Itamarati","AM",0.477,0.529,0.772,0.266,8038,-6.43779934840865,-68.2479174359782,112.652164
"130200",1302009,"Itapiranga","AM",0.654,0.594,0.792,0.594,8211,-2.74184275223855,-58.0345458839662,69.268709
"130210",1302108,"Japurá","AM",0.522,0.552,0.748,0.345,7326,-1.88084485864101,-66.9969034946413,69.840525
"130220",1302207,"Juruá","AM",0.522,0.538,0.704,0.376,10802,-3.47488959877636,-66.0630419255434,64.379174
"130230",1302306,"Jutaí","AM",0.516,0.528,0.766,0.34,17992,-2.74464644676747,-66.7713275466878,62.144425
"130240",1302405,"Lábrea","AM",0.531,0.538,0.744,0.374,37701,-7.26194655309012,-64.79477302752,57.507314
"130250",1302504,"Manacapuru","AM",0.614,0.604,0.795,0.481,85141,-3.29827803535901,-60.6205894458706,26.965542
"130255",1302553,"Manaquiri","AM",0.596,0.556,0.748,0.51,22801,-3.4290796692398,-60.4588813063745,29.481121
"130260",1302603,"Manaus","AM",0.737,0.738,0.826,0.658,1802014,-3.13469149109877,-60.023335181061,34.356331
"130270",1302702,"Manicoré","AM",0.582,0.58,0.747,0.456,47017,-5.81320526099773,-61.2992484088508,44.346313
"130280",1302801,"Maraã","AM",0.498,0.466,0.763,0.348,17528,-1.86643687723974,-65.5742837031641,47.135937
"130290",1302900,"Maués","AM",0.588,0.549,0.8,0.464,52236,-3.38642792609963,-57.7150343867525,24.058942
"130300",1303007,"Nhamundá","AM",0.586,0.513,0.779,0.503,18278,-2.18898376682478,-56.7167699133376,1
"130310",1303106,"Nova Olinda do Norte","AM",0.558,0.541,0.78,0.412,30696,-3.88759283178356,-59.0930740260433,12.073148
"130320",1303205,"Novo Airão","AM",0.57,0.551,0.776,0.434,14723,-2.62343245894122,-60.948810707829,21.79964
"130330",1303304,"Novo Aripuanã","AM",0.554,0.532,0.759,0.421,21451,-5.12266931402812,-60.3770456690009,29.063563
"130340",1303403,"Parintins","AM",0.658,0.589,0.8,0.605,102033,-2.62705258575071,-56.7362921451951,17.327756
"130350",1303502,"Pauini","AM",0.496,0.531,0.724,0.317,18166,-7.71404364407086,-67.0020974885282,118.458317
"130353",1303536,"Presidente Figueiredo","AM",0.647,0.627,0.802,0.538,27175,-2.05842908516517,-60.0256468344675,58.287098
"130356",1303569,"Rio Preto da Eva","AM",0.611,0.59,0.785,0.493,25719,-2.6933015415564,-59.704738094199,34.737296
"130360",1303601,"Santa Isabel do Rio Negro","AM",0.479,0.461,0.737,0.323,18146,-0.416694831868121,-65.020022639512,34.120877
"130370",1303700,"Santo Antônio do Içá","AM",0.49,0.438,0.759,0.353,24481,-3.10748630907923,-67.9464851438841,67.357928
"130380",1303809,"São Gabriel da Cachoeira","AM",0.609,0.61,0.777,0.476,37896,-0.136462788112021,-67.0836428963463,61.510476
"130390",1303908,"São Paulo de Olivença","AM",0.521,0.471,0.78,0.386,31422,-3.46650962337728,-68.9448534881358,86.623249
"130395",1303957,"São Sebastião do Uatumã","AM",0.577,0.561,0.739,0.464,10705,-2.5701525795932,-57.8703463558346,16.938658
"130400",1304005,"Silves","AM",0.632,0.546,0.791,0.584,8444,-2.83642742957244,-58.2148008608269,64.017729
"130406",1304062,"Tabatinga","AM",0.616,0.602,0.769,0.505,52272,-4.23188367550759,-69.9462443752272,63
"130410",1304104,"Tapauá","AM",0.502,0.512,0.694,0.355,19077,-5.62422351760364,-63.1870948671802,50.653389
"130420",1304203,"Tefé","AM",0.639,0.637,0.801,0.511,61453,-3.34837249383133,-64.7084196633027,46.584182
"130423",1304237,"Tonantins","AM",0.548,0.508,0.779,0.416,17079,-2.86109124974123,-67.7764822806952,66.102264
"130426",1304260,"Uarini","AM",0.527,0.535,0.724,0.378,11891,-2.98360924259388,-65.1553456401554,42.588237
"130430",1304302,"Urucará","AM",0.62,0.551,0.754,0.575,17094,-2.53661167175683,-57.7598281745956,17.708774
"130440",1304401,"Urucurituba","AM",0.588,0.538,0.776,0.487,17837,-3.13463311554413,-58.1596410413098,23.07491
"140002",1400027,"Amajari","RR",0.484,0.437,0.815,0.319,9327,3.65211844532578,-61.4205901726631,107.717395
"140005",1400050,"Alto Alegre","RR",0.542,0.518,0.813,0.379,16448,2.99382294755628,-61.3140223901178,121.741984
"140010",1400100,"Boa Vista","RR",0.752,0.737,0.816,0.708,284313,2.81668191901165,-60.6705326729651,79.828228
"140015",1400159,"Bonfim","RR",0.626,0.597,0.809,0.509,10943,3.35028861900008,-59.8780066289099,86.647022
"140017",1400175,"Cantá","RR",0.619,0.581,0.803,0.509,13902,2.60766639833063,-60.6020628476112,82.9828
"140020",1400209,"Caracaraí","RR",0.624,0.601,0.78,0.518,18398,1.80387124723814,-61.14917687013,49.583211
"140023",1400233,"Caroebe","RR",0.639,0.6,0.791,0.549,8114,0.872674507157786,-59.6948100736757,128.834768
"140028",1400282,"Iracema","RR",0.582,0.56,0.81,0.434,8696,2.16821476513243,-61.0522585850197,80.642282
"140030",1400308,"Mucajaí","RR",0.665,0.661,0.813,0.547,14792,2.47977223497174,-60.9115185306216,69.628559
"140040",1400407,"Normandia","RR",0.594,0.52,0.801,0.502,8940,3.88297828517415,-59.6352062835683,102.784875
"140045",1400456,"Pacaraima","RR",0.65,0.624,0.788,0.558,10433,4.47525934006528,-61.1473063471493,912.129909
"140047",1400472,"Rorainópolis","RR",0.619,0.574,0.798,0.519,24279,0.937195393566653,-60.4250604939819,83.796679
"140050",1400506,"São João da Baliza","RR",0.655,0.614,0.78,0.587,6769,0.94715742743545,-59.9060443451544,121.245643
"140060",1400605,"São Luiz","RR",0.649,0.605,0.788,0.574,6750,1.01811162735769,-60.0282667741903,116.345918
"140070",1400704,"Uiramutã","RR",0.453,0.439,0.766,0.276,8375,4.58544038739198,-60.195716148042,605.799563
"150010",1500107,"Abaetetuba","PA",0.628,0.579,0.798,0.537,141100,-1.7234698627891,-48.884403820723,10.120343
"150013",1500131,"Abel Figueiredo","PA",0.622,0.625,0.8,0.481,6780,-4.95139089536882,-48.3967621257945,192.756651
"150020",1500206,"Acará","PA",0.506,0.517,0.757,0.332,53569,-1.9634364999353,-48.2004564317501,7.395031
"150030",1500305,"Afuá","PA",0.489,0.485,0.774,0.311,35042,-0.159171693774547,-50.3914275892332,3.136401
"150034",1500347,"Água Azul do Norte","PA",0.564,0.563,0.797,0.399,25057,-6.80494886718307,-50.4852745072531,296.299435
"150040",1500404,"Alenquer","PA",0.564,0.529,0.779,0.436,52626,-1.95139750493569,-54.7408623501896,39.131195
"150050",1500503,"Almeirim","PA",0.642,0.659,0.809,0.497,33614,-1.52733880271443,-52.5768350868127,18.728788
"150060",1500602,"Altamira","PA",0.665,0.662,0.811,0.548,99075,-3.2056595098945,-52.2143763052078,104.748288
"150070",1500701,"Anajás","PA",0.484,0.506,0.774,0.29,24759,-0.98445139397624,-49.945001040544,5.001054
"150080",1500800,"Ananindeua","PA",0.718,0.684,0.821,0.658,471980,-1.36871356822433,-48.372066654168,26.564442
"150085",1500859,"Anapu","PA",0.548,0.563,0.788,0.371,20543,-3.47610463495432,-51.2016217984581,56.30874
"150090",1500909,"Augusto Corrêa","PA",0.52,0.48,0.772,0.38,40497,-1.02292100996627,-46.6416457856711,15.987763
"150095",1500958,"Aurora do Pará","PA",0.519,0.504,0.773,0.358,26546,-2.12937601312428,-47.5561746036128,41.368894
"150100",1501006,"Aveiro","PA",0.541,0.47,0.748,0.45,15849,-3.60559525916533,-55.3307343898178,15.451251
"150110",1501105,"Bagre","PA",0.471,0.481,0.777,0.28,23864,-1.88980806029944,-50.2219869206135,1.61555
"150120",1501204,"Baião","PA",0.578,0.538,0.77,0.467,36882,-2.79196186126943,-49.6727533733253,30.562405
"150125",1501253,"Bannach","PA",0.594,0.635,0.784,0.42,3431,-7.35107219218464,-50.4060471215195,401.3302
"150130",1501303,"Barcarena","PA",0.662,0.643,0.801,0.564,99859,-1.50576700495036,-48.6270728925156,7.076526
"150140",1501402,"Belém","PA",0.746,0.751,0.822,0.673,1393399,-1.45984499995188,-48.4878256874876,8.471477
"150145",1501451,"Belterra","PA",0.588,0.548,0.775,0.478,16318,-2.64902016938132,-54.9426747393262,167.560031
"150150",1501501,"Benevides","PA",0.665,0.623,0.798,0.592,51651,-1.36143751495512,-48.2418364505703,31.61379
"150157",1501576,"Bom Jesus do Tocantins","PA",0.589,0.601,0.777,0.437,15298,-5.04736270415469,-48.5990399590615,172.278567
"150160",1501600,"Bonito","PA",0.546,0.531,0.77,0.398,13630,-1.36747435682745,-47.3058918168639,54.760633
"150170",1501709,"Bragança","PA",0.6,0.589,0.755,0.486,113227,-1.0535239561709,-46.765754213664,16.040139
"150172",1501725,"Brasil Novo","PA",0.613,0.632,0.809,0.451,15690,-3.29780370389985,-52.5434411922788,189.051168
"150175",1501758,"Brejo Grande do Araguaia","PA",0.591,0.588,0.743,0.473,7317,-5.70729615364912,-48.4057604223874,221.292832
"150178",1501782,"Breu Branco","PA",0.568,0.555,0.781,0.422,52493,-3.77813541275443,-49.5698796832857,95.475014
"150180",1501808,"Breves","PA",0.503,0.524,0.778,0.312,92860,-1.69073649994427,-50.4808947990195,9.90157
"150190",1501907,"Bujaru","PA",0.552,0.495,0.779,0.437,25695,-1.5139914622507,-48.035875014396,17.010542
"150195",1501956,"Cachoeira do Piriá","PA",0.473,0.449,0.779,0.303,26484,-1.75289700487346,-46.5473914166255,48.722592
"150200",1502004,"Cachoeira do Arari","PA",0.546,0.525,0.778,0.398,20443,-1.00878626560602,-48.9606675773871,9.563874
"150210",1502103,"Cametá","PA",0.577,0.538,0.754,0.474,120896,-2.24683847992597,-49.497830168997,11.228958
"150215",1502152,"Canaã dos Carajás","PA",0.673,0.67,0.801,0.569,26716,-6.53219661541585,-49.8489584319153,295.750409
"150220",1502202,"Capanema","PA",0.655,0.61,0.794,0.58,63639,-1.19244199496068,-47.1751261231344,27.276528
"150230",1502301,"Capitão Poço","PA",0.548,0.573,0.747,0.385,51893,-1.74618729317996,-47.0628253774009,64.787476
"150240",1502400,"Castanhal","PA",0.673,0.654,0.8,0.582,173149,-1.29575680500253,-47.9266431419442,46.797427
"150250",1502509,"Chaves","PA",0.453,0.516,0.769,0.234,21005,-0.162437290116554,-49.9893186050714,11.587442
"150260",1502608,"Colares","PA",0.602,0.541,0.763,0.528,11381,-0.932091243927003,-48.2887284319494,12.004689
"150270",1502707,"Conceição do Araguaia","PA",0.64,0.631,0.77,0.54,45557,-8.26486352973121,-49.2645008124957,180.163212
"150275",1502756,"Concórdia do Pará","PA",0.566,0.56,0.741,0.438,28216,-1.98452146270736,-47.9498869390047,49.262563
"150276",1502764,"Cumaru do Norte","PA",0.55,0.635,0.795,0.33,10466,-7.81110653664486,-50.771578377513,311.596246
"150277",1502772,"Curionópolis","PA",0.636,0.592,0.809,0.536,18288,-6.09681995200711,-49.6022142249504,210.954188
"150280",1502806,"Curralinho","PA",0.502,0.508,0.769,0.323,28549,-1.80942341960729,-49.7915228470854,2.481094
"150285",1502855,"Curuá","PA",0.578,0.501,0.78,0.495,12254,-1.8899287042432,-55.1196786087308,23.287489
"150290",1502905,"Curuçá","PA",0.582,0.542,0.758,0.48,34294,-0.732495509975845,-47.8512650859352,16.082956
"150293",1502939,"Dom Eliseu","PA",0.615,0.606,0.763,0.502,51319,-4.29077771985902,-47.5559148859934,261.070712
"150295",1502954,"Eldorado dos Carajás","PA",0.56,0.572,0.757,0.405,31786,-6.10352516087162,-49.3739519421522,138.742621
"150300",1503002,"Faro","PA",0.563,0.501,0.756,0.47,8177,-2.17297524187817,-56.745753017307,19.039247
"150304",1503044,"Floresta do Araguaia","PA",0.583,0.573,0.792,0.437,17768,-7.55870087212369,-49.6975784122373,187.622498
"150307",1503077,"Garrafão do Norte","PA",0.526,0.54,0.763,0.353,25034,-1.93169704304303,-47.0450460172972,45.818804
"150309",1503093,"Goianésia do Pará","PA",0.56,0.585,0.743,0.404,30436,-3.84246799987366,-49.1010449237426,82.583803
"150310",1503101,"Gurupá","PA",0.509,0.51,0.777,0.333,29062,-1.40491799995368,-51.6436957233941,16.392511
"150320",1503200,"Igarapé-Açu","PA",0.595,0.579,0.743,0.49,35887,-1.12432199996293,-47.6223754920271,42.533392
"150330",1503309,"Igarapé-Miri","PA",0.547,0.514,0.77,0.413,58077,-1.98311599993465,-48.9622994689466,9.283106
"150340",1503408,"Inhangapi","PA",0.572,0.55,0.748,0.456,10037,-1.42658198086328,-47.9133927465885,3.928414
"150345",1503457,"Ipixuna do Pará","PA",0.489,0.508,0.757,0.304,51309,-2.55752849991577,-47.4997175887983,46.116508
"150350",1503507,"Irituia","PA",0.559,0.536,0.763,0.427,31364,-1.77147499494161,-47.4407556128483,17.251349
"150360",1503606,"Itaituba","PA",0.64,0.644,0.8,0.51,97493,-4.2637294798599,-55.9900488572777,25.058629
"150370",1503705,"Itupiranga","PA",0.528,0.543,0.746,0.364,51220,-5.12883702619267,-49.3244258612861,88.561741
"150375",1503754,"Jacareacanga","PA",0.505,0.577,0.8,0.279,14103,-6.22355173118281,-57.7663398583794,91.910223
"150380",1503804,"Jacundá","PA",0.622,0.628,0.752,0.509,51360,-4.44840547485389,-49.1127815625675,117.087267
"150390",1503903,"Juruti","PA",0.592,0.547,0.756,0.501,47086,-2.15525299492899,-56.0949976884001,25.611357
"150400",1504000,"Limoeiro do Ajuru","PA",0.541,0.493,0.754,0.425,25021,-1.89194849993765,-49.3815339012019,7.667906
"150405",1504059,"Mãe do Rio","PA",0.599,0.615,0.763,0.458,27904,-2.04770744072328,-47.5522901794773,41.375185
"150410",1504109,"Magalhães Barata","PA",0.597,0.524,0.801,0.507,8115,-0.795850155994916,-47.5991818964912,22.995751
"150420",1504208,"Marabá","PA",0.668,0.673,0.785,0.564,233669,-5.35260576295475,-49.1420253334067,83.617783
"150430",1504307,"Maracanã","PA",0.57,0.534,0.764,0.454,28376,-0.762419459956089,-47.4552679594076,21.232481
"150440",1504406,"Marapanim","PA",0.609,0.57,0.76,0.521,26605,-0.712150996324334,-47.7025487537677,10.012599
"150442",1504422,"Marituba","PA",0.676,0.621,0.793,0.628,108246,-1.34641726553141,-48.340535877783,14.164564
"150445",1504455,"Medicilândia","PA",0.582,0.605,0.8,0.408,27328,-3.44541741207353,-52.8883453507243,128.521265
"150450",1504505,"Melgaço","PA",0.418,0.454,0.776,0.207,24808,-1.80344669858156,-50.7174646976964,8.899709
"150460",1504604,"Mocajuba","PA",0.575,0.539,0.754,0.467,26731,-2.58287297318646,-49.5090234612729,14.514668
"150470",1504703,"Moju","PA",0.547,0.578,0.757,0.375,70018,-1.88588899993785,-48.7671991273719,14.428254
"150480",1504802,"Monte Alegre","PA",0.589,0.541,0.764,0.495,55462,-2.00332799993398,-54.073374725636,67.366476
"150490",1504901,"Muaná","PA",0.547,0.54,0.775,0.391,34204,-1.53002620830447,-49.2168324424737,6.205626
"150495",1504950,"Nova Esperança do Piriá","PA",0.502,0.482,0.757,0.346,20158,-2.26762598895659,-46.9620928836736,72.106754
"150497",1504976,"Nova Ipixuna","PA",0.581,0.59,0.766,0.435,14645,-4.92308630686493,-49.0798869380164,112.806927
"150500",1505007,"Nova Timboteua","PA",0.609,0.564,0.791,0.507,13670,-1.20414364742716,-47.3932022764599,47.717253
"150503",1505031,"Novo Progresso","PA",0.673,0.709,0.828,0.519,25124,-7.03483591305845,-55.4198701179784,224.205442
"150506",1505064,"Novo Repartimento","PA",0.537,0.557,0.741,0.376,62050,-4.24814849986041,-49.9486382443426,95.016847
"150510",1505106,"Óbidos","PA",0.594,0.556,0.756,0.499,49333,-1.90923549581828,-55.5163235097126,29.793842
"150520",1505205,"Oeiras do Pará","PA",0.507,0.502,0.754,0.344,28595,-2.00473399993394,-49.8551061087735,7.081295
"150530",1505304,"Oriximiná","PA",0.623,0.599,0.778,0.52,62794,-1.76375349994187,-55.8627995152359,43.484541
"150540",1505403,"Ourém","PA",0.568,0.575,0.727,0.438,16311,-1.54894714225138,-47.1176193628502,15.406258
"150543",1505437,"Ourilândia do Norte","PA",0.624,0.653,0.795,0.467,27359,-6.74061708615711,-51.0908327746816,322.442251
"150548",1505486,"Pacajá","PA",0.515,0.541,0.746,0.338,39979,-3.83030570363135,-50.6348408304298,71
"150549",1505494,"Palestina do Pará","PA",0.589,0.574,0.761,0.467,7475,-5.7499341060377,-48.3217937261637,123.148483
"150550",1505502,"Paragominas","PA",0.645,0.667,0.781,0.514,97819,-2.99419049990143,-47.3569615610519,88.343788
"150553",1505536,"Parauapebas","PA",0.715,0.701,0.809,0.644,153908,-6.07272988743306,-49.9007806342969,155.338669
"150555",1505551,"Pau D'Arco","PA",0.574,0.571,0.748,0.443,6033,-7.83679440371834,-50.0482755318998,191.079864
"150560",1505601,"Peixe-Boi","PA",0.581,0.543,0.754,0.478,7854,-1.18956924071732,-47.3179270215592,24.528518
"150563",1505635,"Piçarra","PA",0.563,0.561,0.792,0.402,12697,-6.45367623434689,-48.8684006672187,191.927264
"150565",1505650,"Placas","PA",0.552,0.541,0.77,0.404,23934,-3.8673155620082,-54.2169681312654,107.337623
"150570",1505700,"Ponta de Pedras","PA",0.562,0.558,0.773,0.412,25999,-1.39659999747746,-48.8717855600433,4.199593
"150580",1505809,"Portel","PA",0.483,0.513,0.767,0.286,52172,-1.93645099993618,-50.822490442211,10.988676
"150590",1505908,"Porto de Moz","PA",0.503,0.512,0.77,0.322,33956,-1.7460900887513,-52.2424769190201,12.672152
"150600",1506005,"Prainha","PA",0.523,0.512,0.779,0.359,29349,-1.80569449994049,-53.4818139407895,11.990042
"150610",1506104,"Primavera","PA",0.577,0.571,0.772,0.435,10268,-0.940111515899574,-47.1172512589126,19.890609
"150611",1506112,"Quatipuru","PA",0.543,0.55,0.732,0.397,12411,-0.900115853709644,-47.006786993576,13.512052
"150613",1506138,"Redenção","PA",0.672,0.674,0.804,0.561,75556,-8.02760449973873,-50.0296418255093,223.681568
"150616",1506161,"Rio Maria","PA",0.638,0.651,0.804,0.495,17697,-7.31111524444965,-50.0464108775224,199.645647
"150618",1506187,"Rondon do Pará","PA",0.602,0.606,0.788,0.457,46964,-4.77782172687871,-48.0699737493982,192.542076
"150619",1506195,"Rurópolis","PA",0.548,0.548,0.764,0.392,40087,-4.09906538986528,-54.9058622598691,144.182125
"150620",1506203,"Salinópolis","PA",0.647,0.628,0.798,0.541,37421,-0.623637999979433,-47.3531202631536,27.148172
"150630",1506302,"Salvaterra","PA",0.608,0.58,0.793,0.488,20183,-0.754525974328165,-48.5131865994469,15.63598
"150635",1506351,"Santa Bárbara do Pará","PA",0.627,0.575,0.784,0.546,17141,-1.22943946695191,-48.2977406497887,12.723869
"150640",1506401,"Santa Cruz do Arari","PA",0.557,0.483,0.775,0.461,8155,-0.659974125577489,-49.1716155661252,4.66635
"150650",1506500,"Santa Isabel do Pará","PA",0.659,0.622,0.798,0.576,59466,-1.29739590124865,-48.1630599409531,29.24218
"150655",1506559,"Santa Luzia do Pará","PA",0.546,0.53,0.724,0.424,19424,-1.51882789133745,-46.9061692026983,80.139038
"150658",1506583,"Santa Maria das Barreiras","PA",0.544,0.555,0.783,0.37,17206,-8.87055053940507,-49.7193518572257,165
"150660",1506609,"Santa Maria do Pará","PA",0.598,0.595,0.764,0.471,23026,-1.34786645925226,-47.5746954138091,54.948229
"150670",1506708,"Santana do Araguaia","PA",0.602,0.591,0.774,0.478,56153,-9.32942452469776,-50.344804321129,177.690018
"150680",1506807,"Santarém","PA",0.691,0.632,0.807,0.648,294580,-2.43621332991971,-54.7185701672711,52.691026
"150690",1506906,"Santarém Novo","PA",0.587,0.52,0.774,0.502,6141,-0.928719535752583,-47.400924744868,16.290325
"150700",1507003,"Santo Antônio do Tauá","PA",0.632,0.598,0.753,0.561,26674,-1.15169249996203,-48.1324330748457,23.946605
"150710",1507102,"São Caetano de Odivelas","PA",0.585,0.552,0.767,0.473,16891,-0.74661775997024,-48.0258054980831,14.205716
"150715",1507151,"São Domingos do Araguaia","PA",0.594,0.629,0.738,0.451,23130,-5.54984099981812,-48.7203734107844,141.567835
"150720",1507201,"São Domingos do Capim","PA",0.532,0.509,0.773,0.382,29846,-1.67581449994476,-47.7747845692257,8.956195
"150730",1507300,"São Félix do Xingu","PA",0.594,0.638,0.798,0.411,91340,-6.64248327812369,-51.9937825239643,192.412806
"150740",1507409,"São Francisco do Pará","PA",0.608,0.571,0.785,0.502,15060,-1.17018878463839,-47.7905146107051,34.845062
"150745",1507458,"São Geraldo do Araguaia","PA",0.595,0.594,0.793,0.447,25587,-6.39895796979072,-48.5557124861926,127.325684
"150746",1507466,"São João da Ponta","PA",0.583,0.522,0.767,0.495,5265,-0.851002145241544,-47.9207241656462,16.302402
"150747",1507474,"São João de Pirabas","PA",0.539,0.529,0.753,0.393,20647,-0.766442531490096,-47.1726742979205,18.189947
"150750",1507508,"São João do Araguaia","PA",0.55,0.53,0.741,0.424,13155,-5.3590027242407,-48.7886334020461,100.552859
"150760",1507607,"São Miguel do Guamá","PA",0.591,0.582,0.752,0.471,51567,-1.61713591443717,-47.4824089444892,12.146203
"150770",1507706,"São Sebastião da Boa Vista","PA",0.558,0.52,0.76,0.439,22904,-1.71885049994335,-49.5323121746161,6.685908
"150775",1507755,"Sapucaia","PA",0.59,0.639,0.792,0.405,5047,-6.94285711234712,-49.7035807118843,199.915545
"150780",1507805,"Senador José Porfírio","PA",0.514,0.533,0.754,0.338,13045,-2.59485041823806,-51.9530564180171,2
"150790",1507904,"Soure","PA",0.615,0.583,0.76,0.525,23001,-0.725925499976061,-48.5160126622773,15.888703
"150795",1507953,"Tailândia","PA",0.588,0.583,0.776,0.45,79297,-2.93707949990331,-48.9512816295758,52.194732
"150796",1507961,"Terra Alta","PA",0.605,0.555,0.743,0.536,10262,-1.03482666358217,-47.9078083483743,35.418681
"150797",1507979,"Terra Santa","PA",0.635,0.602,0.763,0.558,16949,-2.10811447366957,-56.4909047722432,20.198662
"150800",1508001,"Tomé-Açu","PA",0.586,0.596,0.798,0.424,56518,-2.41936685518763,-48.146896586572,15.20066
"150803",1508035,"Tracuateua","PA",0.531,0.514,0.776,0.376,27455,-1.06878405853311,-46.8994783371171,32.912548
"150805",1508050,"Trairão","PA",0.562,0.594,0.763,0.392,16875,-4.69981914954297,-55.9961700349273,126.408414
"150808",1508084,"Tucumã","PA",0.659,0.67,0.813,0.525,33690,-6.74997200716174,-51.1395392466358,298.984349
"150810",1508100,"Tucuruí","PA",0.666,0.675,0.8,0.548,97128,-3.76688908418776,-49.6671843672248,32.472291
"150812",1508126,"Ulianópolis","PA",0.604,0.682,0.759,0.425,43341,-3.75719300987645,-47.5031447549992,123.904014
"150815",1508159,"Uruará","PA",0.589,0.609,0.798,0.42,44789,-3.7065284998781,-53.7370310504594,162.216302
"150820",1508209,"Vigia","PA",0.617,0.594,0.768,0.516,47889,-0.855532573639551,-48.1414985852069,7.545379
"150830",1508308,"Viseu","PA",0.515,0.482,0.776,0.366,56716,-1.2032785266376,-46.1387652161496,7.618306
"150835",1508357,"Vitória do Xingu","PA",0.596,0.594,0.792,0.451,13431,-2.88376571013385,-52.0112603538154,16.543706
"150840",1508407,"Xinguara","PA",0.646,0.671,0.8,0.503,40573,-7.10151282691424,-49.9427005843752,236.843462
"160005",1600055,"Serra do Navio","AP",0.709,0.659,0.783,0.692,4380,0.897841040942318,-52.0035384352918,139.974718
"160010",1600105,"Amapá","AP",0.642,0.631,0.79,0.532,8069,2.05392124461437,-50.7932144702699,11.94772
"160015",1600154,"Pedra Branca do Amaparí","AP",0.626,0.628,0.779,0.502,10772,0.776882860538326,-51.9465942732743,73.579336
"160020",1600204,"Calçoene","AP",0.643,0.636,0.759,0.55,9000,2.49655904448474,-50.9447727342665,8.604143
"160021",1600212,"Cutias","AP",0.628,0.576,0.76,0.566,4696,0.97107805538513,-50.8016260298776,7.891462
"160023",1600238,"Ferreira Gomes","AP",0.656,0.635,0.82,0.542,5802,0.853977393114796,-51.1874290460046,39.05903
"160025",1600253,"Itaubal","AP",0.576,0.528,0.758,0.477,4265,0.600653288284801,-50.7001794374183,16
"160027",1600279,"Laranjal do Jari","AP",0.665,0.641,0.801,0.573,39942,-0.855664499971784,-52.5390207369393,8.685386
"160030",1600303,"Macapá","AP",0.733,0.723,0.82,0.663,398204,0.0389510099987162,-51.057405457036,14.506623
"160040",1600402,"Mazagão","AP",0.592,0.609,0.758,0.449,17032,-0.124396328816998,-51.2860768561013,7.219743
"160050",1600501,"Oiapoque","AP",0.658,0.693,0.779,0.527,20509,3.85113073243266,-51.8305525552731,3
"160053",1600535,"Porto Grande","AP",0.64,0.61,0.777,0.554,16809,0.712554701800826,-51.4144488229915,70.030128
"160055",1600550,"Pracuúba","AP",0.614,0.539,0.79,0.544,3793,1.7425084870209,-50.7842537212883,10.71486
"160060",1600600,"Santana","AP",0.692,0.654,0.794,0.638,101262,-0.0383734790943945,-51.1728464650687,17.139647
"160070",1600709,"Tartarugalzinho","AP",0.592,0.553,0.794,0.473,12563,1.5098482402613,-50.9127861523142,18.47916
"160080",1600808,"Vitória do Jari","AP",0.619,0.587,0.781,0.517,12428,-0.918977088512495,-52.4196147795718,3.071937
"170025",1700251,"Abreulândia","TO",0.665,0.7,0.835,0.502,2391,-9.621790711687,-49.1624375554797,238.861866
"170030",1700301,"Aguiarnópolis","TO",0.657,0.618,0.804,0.571,5162,-6.54717082040406,-47.470456587945,173.193729
"170035",1700350,"Aliança do Tocantins","TO",0.663,0.61,0.801,0.596,5671,-11.3037430461457,-48.9412400221409,335.700857
"170040",1700400,"Almas","TO",0.636,0.616,0.796,0.524,7586,-11.5745234690764,-47.1741716842358,420.740438
"170070",1700707,"Alvorada","TO",0.708,0.677,0.843,0.623,8374,-12.4788153204241,-49.12681140673,302.24726
"170100",1701002,"Ananás","TO",0.671,0.621,0.804,0.605,9865,-6.36281815389197,-48.0797646061948,192.715457
"170105",1701051,"Angico","TO",0.648,0.576,0.773,0.612,3175,-6.38775274951589,-47.8620778391735,270.833554
"170110",1701101,"Aparecida do Rio Negro","TO",0.651,0.593,0.791,0.588,4213,-9.95587771423876,-47.9766700113511,267.070795
"170130",1701309,"Aragominas","TO",0.593,0.611,0.739,0.461,5882,-7.16434927120989,-48.5234301922917,302.735223
"170190",1701903,"Araguacema","TO",0.639,0.587,0.805,0.553,6317,-8.80180254382543,-49.5618126396074,156
"170200",1702000,"Araguaçu","TO",0.675,0.642,0.796,0.602,8786,-12.9255837114497,-49.8286124432782,315.167807
"170210",1702109,"Araguaína","TO",0.752,0.727,0.821,0.712,150484,-7.19132893942029,-48.2087052518558,235.277019
"170215",1702158,"Araguanã","TO",0.604,0.617,0.756,0.473,5030,-6.58224941981402,-48.6437495469431,139.451152
"170220",1702208,"Araguatins","TO",0.631,0.604,0.793,0.525,31329,-5.65058647281481,-48.1235073430294,116.261365
"170230",1702307,"Arapoema","TO",0.68,0.645,0.81,0.601,6742,-7.65256973516966,-49.0756373852721,209.446061
"170240",1702406,"Arraias","TO",0.651,0.636,0.829,0.523,10645,-12.9344198588471,-46.9461070585534,722.402051
"170255",1702554,"Augustinópolis","TO",0.67,0.614,0.793,0.619,15950,-5.46541429571737,-47.8809567910047,147.772414
"170270",1702703,"Aurora do Tocantins","TO",0.677,0.676,0.804,0.57,3446,-12.708489860656,-46.4070829808607,481.000844
"170290",1702901,"Axixá do Tocantins","TO",0.627,0.595,0.733,0.566,9275,-5.62430906574316,-47.7741560325221,217.832215
"170300",1703008,"Babaçulândia","TO",0.642,0.589,0.792,0.568,10424,-7.20186453182647,-47.7588161270324,161.381782
"170305",1703057,"Bandeirantes do Tocantins","TO",0.638,0.57,0.797,0.571,3122,-7.76485914100039,-48.5783806048644,290.992965
"170307",1703073,"Barra do Ouro","TO",0.603,0.557,0.76,0.517,4123,-7.69176659840625,-47.6871349692244,163.374048
"170310",1703107,"Barrolândia","TO",0.642,0.6,0.817,0.541,5349,-9.83165336421555,-48.7314605907218,346.969179
"170320",1703206,"Bernardo Sayão","TO",0.638,0.606,0.748,0.573,4456,-7.86851248305658,-48.8990543467276,163.731013
"170330",1703305,"Bom Jesus do Tocantins","TO",0.66,0.621,0.833,0.555,3768,-8.96334801256442,-48.1663804935405,188.018168
"170360",1703602,"Brasilândia do Tocantins","TO",0.684,0.64,0.831,0.601,2064,-8.38488935080541,-48.485374419124,217.736921
"170370",1703701,"Brejinho de Nazaré","TO",0.686,0.635,0.82,0.619,5185,-11.0108050558323,-48.5586602281507,222.777925
"170380",1703800,"Buriti do Tocantins","TO",0.627,0.575,0.713,0.601,9768,-5.31353885621493,-48.223250128075,155.460741
"170382",1703826,"Cachoeirinha","TO",0.627,0.548,0.762,0.59,2148,-6.11324164630458,-47.914197778559,200.41262
"170384",1703842,"Campos Lindos","TO",0.544,0.578,0.738,0.377,8139,-7.97168139387781,-46.8019743467067,297.387732
"170386",1703867,"Cariri do Tocantins","TO",0.662,0.639,0.826,0.549,3756,-11.8889974634935,-49.1710407289889,291.100357
"170388",1703883,"Carmolândia","TO",0.64,0.621,0.81,0.521,2316,-7.0314787776315,-48.3959599306274,300.44747
"170389",1703891,"Carrasco Bonito","TO",0.594,0.543,0.728,0.531,3688,-5.32266135468352,-48.0306334265692,116.001105
"170390",1703909,"Caseara","TO",0.658,0.647,0.825,0.534,4601,-9.26740621860317,-49.9486922677787,175.792959
"170410",1704105,"Centenário","TO",0.569,0.571,0.7,0.461,2566,-8.95846363880318,-47.3383985145873,311.053772
"170460",1704600,"Chapada de Areia","TO",0.619,0.619,0.726,0.529,1335,-10.1419885830059,-49.1831078580315,273.822331
"170510",1705102,"Chapada da Natividade","TO",0.62,0.59,0.814,0.497,3277,-11.6242678309892,-47.7539048918565,354.776647
"170550",1705508,"Colinas do Tocantins","TO",0.701,0.69,0.814,0.614,30838,-8.05462467523782,-48.4815945437489,233.502707
"170555",1705557,"Combinado","TO",0.697,0.649,0.815,0.639,4669,-12.8186076716224,-46.5520723402661,428.169059
"170560",1705607,"Conceição do Tocantins","TO",0.592,0.588,0.739,0.478,4182,-12.2172777665747,-47.292868810807,408.838513
"170600",1706001,"Couto de Magalhães","TO",0.605,0.574,0.76,0.508,5009,-8.3551183693636,-49.176571570853,194.727349
"170610",1706100,"Cristalândia","TO",0.673,0.663,0.805,0.57,7234,-10.5907246367763,-49.1863002912612,274.339322
"170625",1706258,"Crixás do Tocantins","TO",0.644,0.603,0.798,0.555,1564,-11.1042742932472,-48.9155138256477,239.512231
"170650",1706506,"Darcinópolis","TO",0.581,0.597,0.764,0.429,5273,-6.71235100126242,-47.7521611102799,287.169246
"170700",1707009,"Dianópolis","TO",0.701,0.673,0.822,0.624,19112,-11.6252318776921,-46.8204090669435,689.26917
"170710",1707108,"Divinópolis do Tocantins","TO",0.683,0.667,0.816,0.585,6363,-9.79530113991271,-49.2054131873503,262.828215
"170720",1707207,"Dois Irmãos do Tocantins","TO",0.583,0.551,0.813,0.442,7161,-9.261296709497,-49.0673386442723,256.687621
"170730",1707306,"Dueré","TO",0.679,0.654,0.846,0.566,4592,-11.3412854164155,-49.2658759161628,232.096256
"170740",1707405,"Esperantina","TO",0.57,0.495,0.715,0.524,9476,-5.36660805922856,-48.5441476004124,99.868761
"170755",1707553,"Fátima","TO",0.697,0.653,0.813,0.638,3805,-10.7525087277385,-48.8989826586808,329.776316
"170765",1707652,"Figueirópolis","TO",0.689,0.664,0.822,0.6,5340,-12.1367799828342,-49.1738467307434,294.467697
"170770",1707702,"Filadélfia","TO",0.621,0.578,0.792,0.522,8505,-7.33761190569146,-47.484964141532,157.963023
"170820",1708205,"Formoso do Araguaia","TO",0.67,0.64,0.801,0.587,18427,-11.8051419682711,-49.5268603629125,268.534548
"170825",1708254,"Fortaleza do Tabocão","TO",0.659,0.616,0.808,0.575,2419,-9.05896530085604,-48.5174264210488,225.868742
"170830",1708304,"Goianorte","TO",0.621,0.598,0.805,0.497,4956,-8.77052080454466,-48.9368901923611,262.436486
"170900",1709005,"Goiatins","TO",0.576,0.541,0.765,0.462,12064,-7.70917238994453,-47.3154354891583,188.053175
"170930",1709302,"Guaraí","TO",0.741,0.724,0.839,0.67,23200,-8.83616565721764,-48.5086406064702,257.325051
"170950",1709500,"Gurupi","TO",0.759,0.736,0.843,0.706,76755,-11.7297723224839,-49.0714774689303,300.351357
"170980",1709807,"Ipueiras","TO",0.62,0.576,0.797,0.518,1639,-11.2462886212303,-48.4519262288947,226.594554
"171050",1710508,"Itacajá","TO",0.612,0.585,0.798,0.491,7104,-8.39098055204579,-47.768112402678,196.480857
"171070",1710706,"Itaguatins","TO",0.616,0.572,0.799,0.511,6029,-5.77538508821304,-47.4799359489833,156.704499
"171090",1710904,"Itapiratins","TO",0.601,0.611,0.796,0.446,3532,-8.3843295931704,-48.1111996094691,179.519091
"171110",1711100,"Itaporã do Tocantins","TO",0.65,0.613,0.842,0.531,2445,-8.56882861128216,-48.6932637032248,339.248352
"171150",1711506,"Jaú do Tocantins","TO",0.662,0.672,0.815,0.529,3507,-12.6529263688668,-48.5946082927248,350.583423
"171180",1711803,"Juarina","TO",0.584,0.563,0.742,0.478,2231,-8.11742396734265,-49.0986431854272,200.295256
"171190",1711902,"Lagoa da Confusão","TO",0.627,0.63,0.787,0.496,10210,-10.7886955572423,-49.620085339146,188.205395
"171195",1711951,"Lagoa do Tocantins","TO",0.579,0.543,0.758,0.471,3525,-10.2968866966675,-47.5614466302738,315.985955
"171200",1712009,"Lajeado","TO",0.675,0.673,0.798,0.573,2773,-9.74468243542041,-48.3585039506901,195.580364
"171215",1712157,"Lavandeira","TO",0.66,0.598,0.775,0.62,1605,-12.7916587872439,-46.5066757157435,403.02284
"171240",1712405,"Lizarda","TO",0.57,0.584,0.765,0.415,3725,-9.59457028749917,-46.6751654558461,415.984801
"171245",1712454,"Luzinópolis","TO",0.639,0.593,0.726,0.605,2622,-6.19398966003309,-47.856828041414,201.753297
"171250",1712504,"Marianópolis do Tocantins","TO",0.631,0.63,0.792,0.504,4352,-9.79888035903371,-49.6510339944378,198.482168
"171270",1712702,"Mateiros","TO",0.607,0.586,0.823,0.463,2223,-10.5444288457379,-46.412465743092,520.974283
"171280",1712801,"Maurilândia do Tocantins","TO",0.58,0.542,0.724,0.498,3154,-5.95256642101555,-47.5048799601751,151.011032
"171320",1713205,"Miracema do Tocantins","TO",0.684,0.675,0.82,0.579,20684,-9.56834607733682,-48.3879913115193,190.429632
"171330",1713304,"Miranorte","TO",0.662,0.633,0.804,0.571,12623,-9.51740473078501,-48.5926319369139,225.601835
"171360",1713601,"Monte do Carmo","TO",0.622,0.608,0.808,0.489,6716,-10.7635421942771,-48.1104200299112,305.379892
"171370",1713700,"Monte Santo do Tocantins","TO",0.62,0.572,0.76,0.547,2085,-10.0055914314707,-48.9908906033935,295.556787
"171380",1713809,"Palmeiras do Tocantins","TO",0.628,0.586,0.81,0.522,5740,-6.61186233434559,-47.5586835262825,176.07136
"171395",1713957,"Muricilândia","TO",0.596,0.543,0.745,0.524,3152,-7.13851928492735,-48.6067452770067,182.756984
"171420",1714203,"Natividade","TO",0.673,0.646,0.847,0.556,9000,-11.7053573821289,-47.7272575338232,335.696204
"171430",1714302,"Nazaré","TO",0.643,0.584,0.792,0.576,4386,-6.37255796907719,-47.6669771825263,210.04848
"171488",1714880,"Nova Olinda","TO",0.631,0.614,0.765,0.535,10686,-7.63331491044374,-48.4248067900164,252.491259
"171500",1715002,"Nova Rosalândia","TO",0.661,0.582,0.791,0.628,3770,-10.5668711389917,-48.9061807245023,262.599744
"171510",1715101,"Novo Acordo","TO",0.639,0.618,0.797,0.53,3762,-9.96848646537956,-47.6681483922167,226.037328
"171515",1715150,"Novo Alegre","TO",0.699,0.642,0.812,0.654,2286,-12.9099386739967,-46.5772973536675,514.289552
"171525",1715259,"Novo Jardim","TO",0.596,0.559,0.73,0.52,2457,-11.8158750497703,-46.6307872958899,640.884544
"171550",1715507,"Oliveira de Fátima","TO",0.675,0.627,0.798,0.614,1037,-10.7083627087169,-48.9074015689032,304.023053
"171570",1715705,"Palmeirante","TO",0.571,0.564,0.756,0.436,4954,-7.85756137588916,-47.9342497089842,167.748162
"171575",1715754,"Palmeirópolis","TO",0.673,0.652,0.817,0.571,7339,-13.0398884332539,-48.4134139552316,454.71199
"171610",1716109,"Paraíso do Tocantins","TO",0.764,0.759,0.831,0.706,44417,-10.1712207546715,-48.8866300840169,398.578296
"171620",1716208,"Paranã","TO",0.595,0.588,0.777,0.461,10338,-12.6204814883154,-47.8840837284426,270.015519
"171630",1716307,"Pau D'Arco","TO",0.661,0.621,0.792,0.587,4588,-7.53999835545418,-49.3633064810091,161.936181
"171650",1716505,"Pedro Afonso","TO",0.732,0.699,0.846,0.664,11539,-8.96444959213212,-48.1775561127387,181.957873
"171660",1716604,"Peixe","TO",0.674,0.679,0.812,0.555,10384,-12.0297738304679,-48.537810626336,246.033236
"171665",1716653,"Pequizeiro","TO",0.627,0.589,0.806,0.518,5054,-8.5933406541693,-48.9351798669158,292.582377
"171670",1716703,"Colméia","TO",0.671,0.645,0.816,0.574,8611,-8.72937180653516,-48.7570665856948,386.434647
"171700",1717008,"Pindorama do Tocantins","TO",0.605,0.579,0.733,0.521,4506,-11.1382025843227,-47.5756877172877,437.147877
"171720",1717206,"Piraquê","TO",0.621,0.593,0.792,0.511,2920,-6.76977703318617,-48.2937073910932,194.960543
"171750",1717503,"Pium","TO",0.65,0.633,0.822,0.527,6694,-10.4409311175937,-49.1666580115747,268.45852
"171780",1717800,"Ponte Alta do Bom Jesus","TO",0.603,0.589,0.82,0.455,4544,-12.0878129080476,-46.4695867923952,518.670469
"171790",1717909,"Ponte Alta do Tocantins","TO",0.624,0.587,0.779,0.531,7180,-10.7406728483355,-47.5411803583019,315.882195
"171800",1718006,"Porto Alegre do Tocantins","TO",0.645,0.586,0.785,0.584,2796,-11.6072590987161,-47.0474256004295,382.414125
"171820",1718204,"Porto Nacional","TO",0.74,0.699,0.826,0.701,49146,-10.708569916655,-48.4121534584309,234.029467
"171830",1718303,"Praia Norte","TO",0.583,0.526,0.73,0.517,7659,-5.39671287720134,-47.8147317333423,128.757235
"171840",1718402,"Presidente Kennedy","TO",0.669,0.628,0.82,0.582,3681,-8.52996082734202,-48.504330670109,275.440644
"171845",1718451,"Pugmil","TO",0.669,0.621,0.809,0.595,2369,-10.4243071559105,-48.8942204487831,296.17995
"171850",1718501,"Recursolândia","TO",0.5,0.49,0.738,0.345,3768,-8.7353604535965,-47.2380411950208,334.137764
"171855",1718550,"Riachinho","TO",0.572,0.503,0.76,0.49,4191,-6.44221138748674,-48.141045502038,158.575599
"171865",1718659,"Rio da Conceição","TO",0.608,0.557,0.718,0.561,1714,-11.4049400235328,-46.8803997045722,518.965692
"171870",1718709,"Rio dos Bois","TO",0.616,0.588,0.795,0.501,2570,-9.34374223838521,-48.5330479716015,208.162542
"171875",1718758,"Rio Sono","TO",0.6,0.574,0.779,0.482,6254,-9.34778933381329,-47.8999416391395,202.931217
"171880",1718808,"Sampaio","TO",0.606,0.546,0.691,0.59,3864,-5.34929561632131,-47.8757924571994,125.433696
"171884",1718840,"Sandolândia","TO",0.659,0.626,0.791,0.578,3326,-12.5416001670828,-49.9333881543012,249.798948
"171886",1718865,"Santa Fé do Araguaia","TO",0.616,0.604,0.804,0.482,6599,-7.14993638479785,-48.6939418034376,180.042188
"171888",1718881,"Santa Maria do Tocantins","TO",0.634,0.6,0.784,0.543,2894,-8.77497644898165,-47.7452704192246,319.297085
"171889",1718899,"Santa Rita do Tocantins","TO",0.651,0.63,0.83,0.527,2128,-10.8664553690531,-48.909294007359,290.732558
"171890",1718907,"Santa Rosa do Tocantins","TO",0.595,0.574,0.78,0.471,4568,-11.4514039981818,-48.1199542217524,291.372477
"171900",1719004,"Santa Tereza do Tocantins","TO",0.662,0.618,0.817,0.575,2523,-10.2823615274869,-47.8062883215081,274.646666
"172000",1720002,"Santa Terezinha do Tocantins","TO",0.637,0.583,0.758,0.584,2474,-6.43699761823375,-47.6842853630081,256.868543
"172010",1720101,"São Bento do Tocantins","TO",0.605,0.595,0.736,0.506,4608,-6.04499925699451,-47.9193922870534,218.373974
"172015",1720150,"São Félix do Tocantins","TO",0.574,0.55,0.771,0.446,1437,-10.1732858536343,-46.6549808310123,416.110986
"172020",1720200,"São Miguel do Tocantins","TO",0.623,0.582,0.762,0.544,10481,-5.55381952861228,-47.5730023393731,157.657575
"172025",1720259,"São Salvador do Tocantins","TO",0.605,0.592,0.794,0.471,2910,-12.7474334140888,-48.2320849916811,272.83681
"172030",1720309,"São Sebastião do Tocantins","TO",0.573,0.516,0.748,0.487,4283,-5.2589614535626,-48.2038341490288,116
"172049",1720499,"São Valério da Natividade","TO",0.643,0.605,0.814,0.539,4383,-11.9730674590962,-48.2329484333802,310.395463
"172065",1720655,"Silvanópolis","TO",0.675,0.638,0.814,0.592,5068,-11.1498613082043,-48.1798241355321,265.702943
"172080",1720804,"Sítio Novo do Tocantins","TO",0.604,0.55,0.762,0.526,9148,-5.60472685646943,-47.6374226504604,192.47696
"172085",1720853,"Sucupira","TO",0.667,0.623,0.794,0.599,1742,-11.9862215104761,-48.9111262826871,288.527931
"172090",1720903,"Taguatinga","TO",0.634,0.628,0.818,0.497,15051,-12.3961417382852,-46.4387317008831,618.75828
"172093",1720937,"Taipas do Tocantins","TO",0.601,0.578,0.798,0.47,1945,-12.1928372086642,-46.9845717959323,406.578814
"172097",1720978,"Talismã","TO",0.654,0.654,0.801,0.535,2562,-12.7875384064525,-49.0911184339334,297
"172100",1721000,"Palmas","TO",0.788,0.789,0.827,0.749,228332,-10.1632533264646,-48.3510437082462,234.047277
"172110",1721109,"Tocantínia","TO",0.589,0.57,0.782,0.459,6736,-9.55814773369634,-48.3758796714267,191.678459
"172120",1721208,"Tocantinópolis","TO",0.681,0.634,0.801,0.623,22619,-6.32563437582104,-47.4274129286927,171.761803
"172125",1721257,"Tupirama","TO",0.67,0.629,0.808,0.593,1574,-8.98056954912582,-48.2066848030641,211.897079
"172130",1721307,"Tupiratins","TO",0.587,0.601,0.791,0.425,2097,-8.3955299966851,-48.1229957408688,177.478798
"172208",1722081,"Wanderlândia","TO",0.638,0.619,0.748,0.561,10981,-6.85012551646474,-47.9562677260283,266.586487
"172210",1722107,"Xambioá","TO",0.671,0.648,0.818,0.57,11484,-6.41188501997015,-48.531601072817,150.222935
"210005",2100055,"Açailândia","MA",0.672,0.643,0.785,0.602,104047,-4.951377,-47.5066645931119,229.048825
"210010",2100105,"Afonso Cunha","MA",0.529,0.471,0.725,0.434,5905,-4.13501547673418,-43.3208690039685,67.197529
"210015",2100154,"Água Doce do Maranhão","MA",0.5,0.494,0.697,0.363,11581,-2.84027827904329,-42.1155512017213,10.436902
"210020",2100204,"Alcântara","MA",0.573,0.525,0.753,0.475,21851,-2.403276525,-44.4170125372846,29.719542
"210030",2100303,"Aldeias Altas","MA",0.513,0.5,0.72,0.374,23952,-4.630779495,-43.4687348529398,80.487172
"210040",2100402,"Altamira do Maranhão","MA",0.549,0.486,0.719,0.473,11063,-4.16226926671636,-45.4646758311604,55.192125
"210043",2100436,"Alto Alegre do Maranhão","MA",0.554,0.516,0.744,0.444,24599,-4.20722699986175,-44.4482474945232,56.966469
"210047",2100477,"Alto Alegre do Pindaré","MA",0.558,0.465,0.774,0.483,31057,-3.66517037433273,-45.8420796161705,17.599259
"210050",2100501,"Alto Parnaíba","MA",0.633,0.683,0.785,0.474,10766,-9.10836593189579,-45.9273440133384,275.69814
"210055",2100550,"Amapá do Maranhão","MA",0.52,0.503,0.688,0.406,6431,-1.68092149506638,-46.0091799003875,59.436922
"210060",2100600,"Amarante do Maranhão","MA",0.555,0.541,0.716,0.441,37932,-5.55766200000001,-46.7506375454972,250.762969
"210070",2100709,"Anajatuba","MA",0.581,0.523,0.762,0.492,25291,-3.25755484202004,-44.6206700277629,6.905997
"210080",2100808,"Anapurus","MA",0.581,0.511,0.764,0.502,13939,-3.66703466222625,-43.1057925096893,94.503552
"210083",2100832,"Apicum-Açu","MA",0.568,0.529,0.718,0.483,14959,-1.5305915777044,-45.0766520734486,10.578819
"210087",2100873,"Araguanã","MA",0.533,0.483,0.706,0.444,13973,-2.94912562317996,-45.6687944761006,19.123992
"210090",2100907,"Araioses","MA",0.521,0.497,0.709,0.402,42505,-2.88925584633793,-41.8991394498654,0.104242
"210095",2100956,"Arame","MA",0.512,0.525,0.701,0.365,31702,-4.88608150483964,-46.0136362778351,128.643699
"210100",2101004,"Arari","MA",0.626,0.587,0.764,0.546,28488,-3.45917097,-44.7788346547106,7.799486
"210110",2101103,"Axixá","MA",0.641,0.535,0.776,0.634,11407,-2.83779683703868,-44.0545858090773,17.672108
"210120",2101202,"Bacabal","MA",0.651,0.619,0.753,0.591,100014,-4.23152462964146,-44.7815559640891,25.184611
"210125",2101251,"Bacabeira","MA",0.629,0.558,0.768,0.58,14925,-2.9858247786774,-44.3154229865672,37.501395
"210130",2101301,"Bacuri","MA",0.578,0.54,0.737,0.484,16604,-1.7240463184164,-45.1373489396265,23.844171
"210135",2101350,"Bacurituba","MA",0.537,0.474,0.681,0.479,5293,-2.71087197643134,-44.7357420061579,4.958069
"210140",2101400,"Balsas","MA",0.687,0.674,0.807,0.597,83528,-7.53116999000001,-46.0389926733405,255.910533
"210150",2101509,"Barão de Grajaú","MA",0.592,0.578,0.743,0.484,17841,-6.75895520535962,-43.0264526994269,110.360829
"210160",2101608,"Barra do Corda","MA",0.606,0.585,0.763,0.498,82830,-5.50833949981946,-45.239011016111,152.522676
"210170",2101707,"Barreirinhas","MA",0.57,0.515,0.752,0.479,54930,-2.75008594866755,-42.8278025132041,5.037739
"210173",2101731,"Belágua","MA",0.512,0.417,0.707,0.455,6524,-3.15677222742575,-43.510061642741,64.562445
"210177",2101772,"Bela Vista do Maranhão","MA",0.554,0.515,0.735,0.45,12049,-3.73773324978536,-45.2482458781849,37.251231
"210180",2101806,"Benedito Leite","MA",0.546,0.531,0.719,0.426,5469,-7.21879979514966,-44.5598567990095,218.997828
"210190",2101905,"Bequimão","MA",0.601,0.51,0.757,0.561,20344,-2.462062995,-44.7857301568673,3.187989
"210193",2101939,"Bernardo do Mearim","MA",0.604,0.544,0.742,0.547,5996,-4.63028749064025,-44.7643231034878,52.21505
"210197",2101970,"Boa Vista do Gurupi","MA",0.545,0.515,0.681,0.461,7949,-1.79329613573969,-46.2987100525274,18.405188
"210200",2102002,"Bom Jardim","MA",0.538,0.519,0.75,0.4,39049,-3.54416097773913,-45.6018893890511,39.171601
"210203",2102036,"Bom Jesus das Selvas","MA",0.558,0.537,0.751,0.431,28459,-4.48996835295945,-46.8532412231489,207.141816
"210207",2102077,"Bom Lugar","MA",0.562,0.486,0.741,0.493,14818,-4.37550960132049,-45.0311078563238,40.984949
"210210",2102101,"Brejo","MA",0.562,0.517,0.758,0.454,33359,-3.679177999879,-42.7508478268196,53.017318
"210215",2102150,"Brejo de Areia","MA",0.519,0.507,0.677,0.408,5577,-4.33062989735273,-45.5820952717814,85.288699
"210220",2102200,"Buriti","MA",0.548,0.479,0.714,0.48,27013,-3.94557149987029,-42.9251061777803,54.824899
"210230",2102309,"Buriti Bravo","MA",0.59,0.539,0.752,0.506,22899,-5.83528813195563,-43.8356215415106,219.204782
"210232",2102325,"Buriticupu","MA",0.556,0.533,0.708,0.455,65237,-4.32594772615942,-46.451495319051,172.752391
"210235",2102358,"Buritirana","MA",0.583,0.54,0.725,0.505,14784,-5.58891514152842,-47.0172250932177,230.460594
"210237",2102374,"Cachoeira Grande","MA",0.537,0.422,0.773,0.476,8446,-2.93192103896108,-44.0596850157832,8.59891
"210240",2102408,"Cajapió","MA",0.553,0.466,0.72,0.505,10593,-2.8828822030626,-44.6733771645862,4.650649
"210250",2102507,"Cajari","MA",0.523,0.456,0.747,0.421,18338,-3.32386883080754,-45.0079653349663,5.474949
"210255",2102556,"Campestre do Maranhão","MA",0.652,0.611,0.774,0.586,13369,-6.16471664563345,-47.3676328633342,165.593462
"210260",2102606,"Cândido Mendes","MA",0.561,0.52,0.745,0.456,18505,-1.45388910848007,-45.7372683655917,14.240883
"210270",2102705,"Cantanhede","MA",0.565,0.497,0.774,0.468,20448,-3.62836431175339,-44.381816135839,23.075743
"210275",2102754,"Capinzal do Norte","MA",0.537,0.517,0.698,0.43,10698,-4.7212453886172,-44.3304362519955,127.033842
"210280",2102804,"Carolina","MA",0.634,0.6,0.802,0.529,23959,-7.33078300500001,-47.4700918028279,179.763253
"210290",2102903,"Carutapera","MA",0.574,0.533,0.747,0.476,22006,-1.20060199996041,-46.023150834605,8.885977
"210300",2103000,"Caxias","MA",0.624,0.595,0.753,0.543,155129,-4.86167499000001,-43.3585394285192,77.461758
"210310",2103109,"Cedral","MA",0.605,0.52,0.748,0.57,10297,-1.99791592550575,-44.5307895278055,19.656604
"210312",2103125,"Central do Maranhão","MA",0.585,0.503,0.713,0.557,7887,-2.19131390754558,-44.8318437024986,34.519281
"210315",2103158,"Centro do Guilherme","MA",0.542,0.51,0.707,0.442,12565,-2.45698508172726,-46.0399601131872,50.329556
"210317",2103174,"Centro Novo do Maranhão","MA",0.518,0.508,0.717,0.382,17622,-2.14429169848773,-46.1284089549781,86.060356
"210320",2103208,"Chapadinha","MA",0.604,0.554,0.77,0.517,73350,-3.74002451987701,-43.361120781752,105.704466
"210325",2103257,"Cidelândia","MA",0.6,0.562,0.728,0.529,13681,-5.17742104704177,-47.7842327756716,177.811617
"210330",2103307,"Codó","MA",0.595,0.568,0.754,0.492,118038,-4.4513375,-43.8860802350324,44.265667
"210340",2103406,"Coelho Neto","MA",0.564,0.544,0.728,0.454,46750,-4.2547375,-43.0140136155495,55.575961
"210350",2103505,"Colinas","MA",0.596,0.571,0.709,0.524,39132,-6.02736552000001,-44.2497802305352,146.291374
"210355",2103554,"Conceição do Lago-Açu","MA",0.512,0.492,0.738,0.37,14436,-3.84111845772945,-44.9030159051796,8.944817
"210360",2103604,"Coroatá","MA",0.576,0.545,0.737,0.475,61725,-4.1289759998643,-44.1255992014644,36.771897
"210370",2103703,"Cururupu","MA",0.612,0.568,0.768,0.525,32652,-1.82552078115913,-44.8677616169761,17.382887
"210375",2103752,"Davinópolis","MA",0.607,0.561,0.747,0.535,12579,-5.53445621592496,-47.4049963875281,147.346782
"210380",2103802,"Dom Pedro","MA",0.622,0.582,0.759,0.545,22681,-5.03844763500001,-44.440009910969,137.883548
"210390",2103901,"Duque Bacelar","MA",0.533,0.485,0.693,0.451,10649,-4.14781909697725,-42.9441802036073,49.644393
"210400",2104008,"Esperantinópolis","MA",0.586,0.561,0.713,0.503,18452,-4.87030089731659,-44.8860686990188,115.3078
"210405",2104057,"Estreito","MA",0.659,0.666,0.8,0.536,35835,-6.56808498,-47.4478829861377,150.293844
"210407",2104073,"Feira Nova do Maranhão","MA",0.532,0.511,0.729,0.405,8126,-6.96313554039992,-46.6873552159638,334.713877
"210408",2104081,"Fernando Falcão","MA",0.443,0.417,0.728,0.286,9241,-6.15497846271457,-44.9107074022131,236.540333
"210409",2104099,"Formosa da Serra Negra","MA",0.556,0.485,0.774,0.459,17757,-6.43530410540348,-46.1863570068861,273.035807
"210410",2104107,"Fortaleza dos Nogueiras","MA",0.616,0.566,0.773,0.534,11646,-6.96592608726484,-46.1855575419836,448.154653
"210420",2104206,"Fortuna","MA",0.58,0.558,0.706,0.494,15098,-5.73622413228911,-44.1606284272259,217.82378
"210430",2104305,"Godofredo Viana","MA",0.604,0.537,0.75,0.546,10635,-1.4098001866863,-45.7717548080523,18.735565
"210440",2104404,"Gonçalves Dias","MA",0.568,0.542,0.758,0.445,17482,-5.1439555692923,-44.3059065359375,149.133723
"210450",2104503,"Governador Archer","MA",0.565,0.545,0.687,0.481,10205,-5.02538782376195,-44.2757565261253,132.852
"210455",2104552,"Governador Edison Lobão","MA",0.629,0.589,0.764,0.552,15895,-5.74741173832427,-47.3689358390373,204.163669
"210460",2104602,"Governador Eugênio Barros","MA",0.572,0.55,0.736,0.462,15991,-5.32249100135502,-44.2469626460204,135.674442
"210462",2104628,"Governador Luiz Rocha","MA",0.544,0.508,0.692,0.459,7337,-5.47286468473842,-44.0708873355169,121.560584
"210465",2104651,"Governador Newton Bello","MA",0.521,0.509,0.718,0.387,11921,-3.42970471979073,-45.6745017970092,49.776447
"210467",2104677,"Governador Nunes Freire","MA",0.569,0.54,0.722,0.472,25401,-2.13496235992965,-45.8814811327942,41.800462
"210470",2104701,"Graça Aranha","MA",0.57,0.538,0.748,0.459,6140,-5.40482121287744,-44.33579125992,198.057261
"210480",2104800,"Grajaú","MA",0.609,0.603,0.754,0.497,62093,-5.81854843114047,-46.1423956359934,151.01878
"210490",2104909,"Guimarães","MA",0.625,0.535,0.772,0.592,12081,-2.13507715831417,-44.5977464563371,4.789339
"210500",2105005,"Humberto de Campos","MA",0.535,0.443,0.759,0.455,26189,-2.59122397217549,-43.4650921443146,10.412747
"210510",2105104,"Icatu","MA",0.546,0.475,0.727,0.472,25145,-2.77482786300788,-44.06584846864,6.712083
"210515",2105153,"Igarapé do Meio","MA",0.569,0.53,0.687,0.506,12550,-3.63670852174581,-45.1833277021706,23.012275
"210520",2105203,"Igarapé Grande","MA",0.614,0.578,0.747,0.536,11041,-4.66085380608441,-44.8674033458603,39.700963
"210530",2105302,"Imperatriz","MA",0.731,0.697,0.803,0.698,247505,-5.52652402500001,-47.4798108057682,130.717348
"210535",2105351,"Itaipava do Grajaú","MA",0.518,0.456,0.726,0.419,14297,-5.14458226160105,-45.792682503469,107.176355
"210540",2105401,"Itapecuru Mirim","MA",0.599,0.534,0.747,0.539,62110,-3.39904548,-44.354263390434,21.883496
"210542",2105427,"Itinga do Maranhão","MA",0.63,0.601,0.764,0.545,24863,-4.45500399829955,-47.5279099637574,166.518744
"210545",2105450,"Jatobá","MA",0.561,0.522,0.702,0.481,8526,-5.81966693658443,-44.2199147698158,190.921159
"210547",2105476,"Jenipapo dos Vieiras","MA",0.49,0.445,0.766,0.346,15440,-5.36942492625735,-45.6333791074203,173.367514
"210550",2105500,"João Lisboa","MA",0.641,0.585,0.785,0.573,20381,-5.4536629413804,-47.4050361497684,176.921736
"210560",2105609,"Joselândia","MA",0.561,0.533,0.743,0.445,15433,-4.97269332878427,-44.6991525645005,127.035522
"210565",2105658,"Junco do Maranhão","MA",0.552,0.55,0.69,0.443,4020,-1.87460959744098,-46.0707260732137,53.849131
"210570",2105708,"Lago da Pedra","MA",0.589,0.561,0.724,0.502,46083,-4.5647445148501,-45.1258913559145,75.61844
"210580",2105807,"Lago do Junco","MA",0.581,0.537,0.741,0.492,10729,-4.60764321753235,-45.0513443921165,73.384309
"210590",2105906,"Lago Verde","MA",0.557,0.508,0.731,0.466,15412,-4.0387112951439,-44.9376352319942,26.64068
"210592",2105922,"Lagoa do Mato","MA",0.566,0.525,0.726,0.475,10934,-6.04527729637294,-43.5275591165627,220.309968
"210594",2105948,"Lago dos Rodrigues","MA",0.602,0.555,0.737,0.534,7794,-4.61237577678002,-44.9764423255877,61.616255
"210596",2105963,"Lagoa Grande do Maranhão","MA",0.502,0.48,0.731,0.36,10517,-4.99312373697329,-45.3906142793613,179.381142
"210598",2105989,"Lajeado Novo","MA",0.589,0.561,0.738,0.494,6923,-6.19160922646426,-47.0324475171004,177.331906
"210600",2106003,"Lima Campos","MA",0.581,0.578,0.705,0.481,11423,-4.51704598706918,-44.4693403292236,59.506667
"210610",2106102,"Loreto","MA",0.582,0.516,0.771,0.495,11390,-7.09445416515065,-45.1392416375273,211.003308
"210620",2106201,"Luís Domingues","MA",0.588,0.541,0.734,0.512,6510,-1.32546024430939,-45.8953319920784,9.945077
"210630",2106300,"Magalhães de Almeida","MA",0.567,0.502,0.729,0.499,17587,-3.39666767410904,-42.2015066913751,17.420408
"210632",2106326,"Maracaçumé","MA",0.582,0.546,0.719,0.501,19155,-2.05616454944739,-45.9586390371679,27.366122
"210635",2106359,"Marajá do Sena","MA",0.452,0.4,0.774,0.299,8051,-4.6203133239724,-45.4572376525781,107.523027
"210637",2106375,"Maranhãozinho","MA",0.55,0.497,0.719,0.465,14065,-2.23561699200234,-45.8556114548668,56.665175
"210640",2106409,"Mata Roma","MA",0.57,0.483,0.776,0.494,15150,-3.61904550977468,-43.1203894235718,88.344559
"210650",2106508,"Matinha","MA",0.619,0.579,0.731,0.56,21885,-3.09840002989802,-45.0364289401062,21.892896
"210660",2106607,"Matões","MA",0.55,0.519,0.739,0.434,31015,-5.52246501925306,-43.201208282913,186.948543
"210663",2106631,"Matões do Norte","MA",0.533,0.452,0.768,0.436,13794,-3.62751878009741,-44.5502445069402,34.689749
"210667",2106672,"Milagres do Maranhão","MA",0.527,0.465,0.764,0.413,8118,-3.58220664128022,-42.6107528325103,26.50058
"210670",2106706,"Mirador","MA",0.545,0.485,0.74,0.451,20452,-6.37756569517916,-44.3626097938789,187.079195
"210675",2106755,"Miranda do Norte","MA",0.61,0.55,0.751,0.55,24427,-3.56264477431263,-44.584275691732,66.62825
"210680",2106805,"Mirinzal","MA",0.622,0.546,0.756,0.582,14218,-2.06422419152305,-44.7857559864783,13.914061
"210690",2106904,"Monção","MA",0.546,0.499,0.704,0.464,31738,-3.49393247988506,-45.2475846706441,11.092739
"210700",2107001,"Montes Altos","MA",0.575,0.534,0.732,0.486,9413,-5.82856250397328,-47.0704395080146,249.583101
"210710",2107100,"Morros","MA",0.548,0.485,0.706,0.48,17783,-2.86147895299369,-44.0445445431756,22.219949
"210720",2107209,"Nina Rodrigues","MA",0.585,0.474,0.774,0.547,12464,-3.4624642893331,-43.9044847603498,17.366039
"210725",2107258,"Nova Colinas","MA",0.566,0.502,0.749,0.481,4885,-7.12056600333011,-46.2593252229153,405.571674
"210730",2107308,"Nova Iorque","MA",0.584,0.558,0.729,0.489,4590,-6.73320330557157,-44.0486267271014,201.505273
"210735",2107357,"Nova Olinda do Maranhão","MA",0.581,0.536,0.755,0.484,19134,-2.79988654396792,-45.7045360408348,34.677249
"210740",2107407,"Olho d'Água das Cunhãs","MA",0.589,0.551,0.754,0.491,18601,-4.13727592966944,-45.1195796205,42.935582
"210745",2107456,"Olinda Nova do Maranhão","MA",0.575,0.495,0.724,0.531,13181,-2.99747761531086,-45.0032353744727,15.941204
"210750",2107506,"Paço do Lumiar","MA",0.724,0.646,0.796,0.739,105121,-2.52806299991673,-44.0986923548405,33.169518
"210760",2107605,"Palmeirândia","MA",0.556,0.488,0.715,0.492,18764,-2.64777427817669,-44.9044638923101,13.844925
"210770",2107704,"Paraibano","MA",0.58,0.572,0.723,0.473,20103,-6.43182541392859,-43.9857620488226,285.671258
"210780",2107803,"Parnarama","MA",0.542,0.504,0.758,0.416,34586,-5.68446717621966,-43.0904013534701,83.097975
"210790",2107902,"Passagem Franca","MA",0.532,0.525,0.717,0.401,17562,-6.17399442535667,-43.781745225862,218.682539
"210800",2108009,"Pastos Bons","MA",0.61,0.54,0.753,0.559,18067,-6.60402773184812,-44.0886025133719,308.397342
"210805",2108058,"Paulino Neves","MA",0.561,0.481,0.72,0.511,14519,-2.71820598973756,-42.5454239809373,3.341475
"210810",2108108,"Paulo Ramos","MA",0.549,0.546,0.677,0.447,20079,-4.44795676579025,-45.2399800047299,71.073929
"210820",2108207,"Pedreiras","MA",0.682,0.644,0.792,0.621,39448,-4.56935068794899,-44.6037348763271,32.51849
"210825",2108256,"Pedro do Rosário","MA",0.516,0.475,0.696,0.415,22732,-2.9681146725805,-45.3464537341415,29.973523
"210830",2108306,"Penalva","MA",0.554,0.519,0.693,0.472,34267,-3.29323331766085,-45.1764616887688,17.909994
"210840",2108405,"Peri Mirim","MA",0.599,0.506,0.744,0.572,13803,-2.57305464842133,-44.8502907000589,4.597951
"210845",2108454,"Peritoró","MA",0.564,0.499,0.774,0.464,21201,-4.37022511751354,-44.3258535239149,57.679832
"210850",2108504,"Pindaré-Mirim","MA",0.633,0.568,0.755,0.592,31152,-3.60550057479529,-45.3468679178433,8.250127
"210860",2108603,"Pinheiro","MA",0.637,0.579,0.771,0.579,78162,-2.52274049991691,-45.0839266012937,7.781617
"210870",2108702,"Pio XII","MA",0.541,0.535,0.727,0.408,22016,-3.88758753,-45.169960388665,36.095743
"210880",2108801,"Pirapemas","MA",0.576,0.501,0.741,0.514,17381,-3.72532906599431,-44.2282808838415,36.788545
"210890",2108900,"Poção de Pedras","MA",0.576,0.543,0.732,0.481,19708,-4.75002521108902,-44.9515514003151,57.99466
"210900",2109007,"Porto Franco","MA",0.684,0.664,0.796,0.606,21530,-6.35418186370631,-47.3821649019193,188.027924
"210905",2109056,"Porto Rico do Maranhão","MA",0.615,0.538,0.772,0.561,6030,-1.85722321478292,-44.5837478895568,1.998628
"210910",2109106,"Presidente Dutra","MA",0.653,0.628,0.788,0.563,44731,-5.28237425758561,-44.4929188624246,106.207612
"210920",2109205,"Presidente Juscelino","MA",0.563,0.452,0.743,0.532,11541,-2.92822924605282,-44.0767794214185,51.367429
"210923",2109239,"Presidente Médici","MA",0.591,0.518,0.762,0.522,6374,-2.38366404646061,-45.8207086475539,35.751779
"210927",2109270,"Presidente Sarney","MA",0.557,0.486,0.752,0.472,17165,-2.5955305598205,-45.3713022606449,24.80907
"210930",2109304,"Presidente Vargas","MA",0.587,0.47,0.768,0.56,10717,-3.40201152209462,-44.0334018673342,38.607815
"210940",2109403,"Primeira Cruz","MA",0.512,0.448,0.722,0.414,13954,-2.51058317188088,-43.4424433046987,1.650929
"210945",2109452,"Raposa","MA",0.626,0.568,0.735,0.587,26327,-2.41507490254912,-44.1025161642031,1
"210950",2109502,"Riachão","MA",0.576,0.572,0.757,0.442,20209,-7.36456500000001,-46.6233501429074,394.084913
"210955",2109551,"Ribamar Fiquene","MA",0.615,0.592,0.744,0.527,7318,-5.93382285862428,-47.3834777870799,155.446211
"210960",2109601,"Rosário","MA",0.632,0.566,0.752,0.592,39576,-2.94154303490316,-44.2475185952615,17.544346
"210970",2109700,"Sambaíba","MA",0.565,0.542,0.728,0.456,5487,-7.13835089726499,-45.3442031980139,204.047862
"210975",2109759,"Santa Filomena do Maranhão","MA",0.525,0.461,0.722,0.435,7061,-5.49976680654183,-44.5637140401312,159.968313
"210980",2109809,"Santa Helena","MA",0.571,0.531,0.746,0.471,39110,-2.23453250885313,-45.3051611932379,9.979125
"210990",2109908,"Santa Inês","MA",0.674,0.633,0.788,0.615,77282,-3.65857451987967,-45.3782724523024,29.802811
"211000",2110005,"Santa Luzia","MA",0.55,0.525,0.7,0.452,74043,-3.96839146486954,-45.6650117249372,44.194306
"211003",2110039,"Santa Luzia do Paruá","MA",0.599,0.583,0.723,0.51,22644,-2.54616147473104,-45.7764615615901,44.99977
"211010",2110104,"Santa Quitéria do Maranhão","MA",0.555,0.49,0.76,0.458,29191,-3.498484995,-42.5628730097352,30.366193
"211020",2110203,"Santa Rita","MA",0.609,0.553,0.743,0.551,32366,-3.13411676556786,-44.3199480818757,21.931791
"211023",2110237,"Santana do Maranhão","MA",0.51,0.445,0.758,0.394,11661,-3.11306834267922,-42.4007677571893,33.152745
"211027",2110278,"Santo Amaro do Maranhão","MA",0.518,0.454,0.738,0.416,13820,-2.50272119888626,-43.2552849422448,7.293169
"211030",2110302,"Santo Antônio dos Lopes","MA",0.566,0.547,0.714,0.465,14288,-4.87381957543707,-44.3614474338019,122.116357
"211040",2110401,"São Benedito do Rio Preto","MA",0.541,0.468,0.749,0.452,17799,-3.33276600362059,-43.5299918701629,34.680098
"211050",2110500,"São Bento","MA",0.602,0.525,0.762,0.545,40736,-2.69700749991118,-44.8283451799242,8.229092
"211060",2110609,"São Bernardo","MA",0.572,0.514,0.762,0.479,26476,-3.36543651,-42.4230096609141,41.716878
"211065",2110658,"São Domingos do Azeitão","MA",0.59,0.576,0.732,0.486,6983,-6.80442500952909,-44.6504239102536,308.194629
"211070",2110708,"São Domingos do Maranhão","MA",0.582,0.549,0.713,0.504,33607,-5.56564200000001,-44.3928792568666,183.585151
"211080",2110807,"São Félix de Balsas","MA",0.557,0.517,0.778,0.43,4702,-7.0846851540185,-44.8114476614751,189.115113
"211085",2110856,"São Francisco do Brejão","MA",0.584,0.556,0.748,0.479,10261,-5.13020078699799,-47.3911373985947,261.122886
"211090",2110906,"São Francisco do Maranhão","MA",0.528,0.503,0.733,0.4,12146,-6.25279791644633,-42.8653217275577,103.414761
"211100",2111003,"São João Batista","MA",0.598,0.493,0.752,0.577,19920,-2.95333291236082,-44.8117618530648,16.459534
"211102",2111029,"São João do Carú","MA",0.509,0.487,0.684,0.397,12309,-3.56080340674373,-46.2549254827263,54.240558
"211105",2111052,"São João do Paraíso","MA",0.609,0.554,0.753,0.542,10814,-6.46622228615254,-47.0506104204952,291.953774
"211107",2111078,"São João do Soter","MA",0.517,0.486,0.711,0.401,17238,-5.11573926420215,-43.8181817951061,119.388648
"211110",2111102,"São João dos Patos","MA",0.615,0.613,0.726,0.522,24928,-6.49820815189734,-43.7029101657958,337.870105
"211120",2111201,"São José de Ribamar","MA",0.708,0.642,0.79,0.7,163045,-2.55585851991582,-44.0575481150532,32.938228
"211125",2111250,"São José dos Basílios","MA",0.557,0.501,0.719,0.48,7496,-5.04868724498553,-44.5824465175581,77.432652
"211130",2111300,"São Luís","MA",0.768,0.741,0.813,0.752,1014837,-2.531885985,-44.2979185642444,29.563573
"211140",2111409,"São Luís Gonzaga do Maranhão","MA",0.54,0.503,0.716,0.438,20153,-4.37391849042223,-44.6627084964498,32.80281
"211150",2111508,"São Mateus do Maranhão","MA",0.616,0.627,0.723,0.515,39093,-4.03455051,-44.4685628110946,48.609885
"211153",2111532,"São Pedro da Água Branca","MA",0.605,0.577,0.735,0.523,12028,-5.08891099724046,-48.4236235936456,159.451906
"211157",2111573,"São Pedro dos Crentes","MA",0.6,0.558,0.738,0.524,4425,-6.82855564061529,-46.5325803473698,337.718149
"211160",2111607,"São Raimundo das Mangabeiras","MA",0.61,0.583,0.749,0.521,17474,-7.02696265693906,-45.4848314302202,218.788996
"211163",2111631,"São Raimundo do Doca Bezerra","MA",0.516,0.478,0.7,0.41,6090,-5.10318184472975,-45.0841627902783,120.650104
"211167",2111672,"São Roberto","MA",0.516,0.475,0.738,0.391,5957,-5.01736688221626,-44.9919011592934,87.917556
"211170",2111706,"São Vicente Ferrer","MA",0.592,0.504,0.762,0.541,20863,-2.89073106428277,-44.8869045766146,3.748963
"211172",2111722,"Satubinha","MA",0.493,0.45,0.72,0.369,11990,-4.03573549467763,-45.2336295762481,56.062878
"211174",2111748,"Senador Alexandre Costa","MA",0.538,0.52,0.689,0.435,10256,-5.26107654421136,-44.056301506417,118.145351
"211176",2111763,"Senador La Rocque","MA",0.602,0.57,0.743,0.515,17998,-5.441832495,-47.2891914239822,164.247572
"211178",2111789,"Serrano do Maranhão","MA",0.519,0.44,0.735,0.433,10940,-1.85264554166646,-45.1146408497435,25.651713
"211180",2111805,"Sítio Novo","MA",0.564,0.509,0.774,0.456,17002,-5.87062989112009,-46.6949833406808,258.577929
"211190",2111904,"Sucupira do Norte","MA",0.579,0.526,0.731,0.505,10444,-6.47828444740855,-44.1886027051903,478.265571
"211195",2111953,"Sucupira do Riachão","MA",0.568,0.538,0.761,0.447,4613,-6.42010840491652,-43.5458533208452,299.216171
"211200",2112001,"Tasso Fragoso","MA",0.599,0.562,0.777,0.491,7796,-8.47983101759131,-45.7441235175102,239.729908
"211210",2112100,"Timbiras","MA",0.537,0.498,0.73,0.427,27997,-4.25384050486023,-43.9384339738392,37.124736
"211220",2112209,"Timon","MA",0.649,0.614,0.768,0.579,155460,-5.10068110996202,-42.8337278988597,79.496323
"211223",2112233,"Trizidela do Vale","MA",0.606,0.565,0.738,0.534,18953,-4.57012685645989,-44.6106851966461,27.847075
"211227",2112274,"Tufilândia","MA",0.555,0.502,0.709,0.481,5596,-3.67640411826289,-45.6339164756818,36.460442
"211230",2112308,"Tuntum","MA",0.572,0.534,0.726,0.483,39183,-5.24965553982784,-44.6490121516647,109.085686
"211240",2112407,"Turiaçu","MA",0.561,0.493,0.776,0.461,33933,-1.66902204762672,-45.3691524172241,13.905937
"211245",2112456,"Turilândia","MA",0.536,0.495,0.774,0.402,22846,-2.22883352487709,-45.30676531197,6.090075
"211250",2112506,"Tutóia","MA",0.561,0.543,0.722,0.451,52788,-2.76355019679769,-42.2768472076943,4.059947
"211260",2112605,"Urbano Santos","MA",0.588,0.506,0.77,0.522,24573,-3.20840949948027,-43.4042484723562,42.092097
"211270",2112704,"Vargem Grande","MA",0.542,0.487,0.768,0.425,49412,-3.541896,-43.9166644901652,38.283026
"211280",2112803,"Viana","MA",0.618,0.567,0.758,0.548,49496,-3.21456251296045,-45.0013066952616,11.001596
"211285",2112852,"Vila Nova dos Martírios","MA",0.581,0.555,0.718,0.491,11258,-5.18351151903426,-48.138926482601,124.13528
"211290",2112902,"Vitória do Mearim","MA",0.596,0.54,0.733,0.534,31217,-3.48204736443206,-44.8695722405589,7.780962
"211300",2113009,"Vitorino Freire","MA",0.57,0.563,0.688,0.477,31658,-4.2911865,-45.244185143155,71.668744
"211400",2114007,"Zé Doca","MA",0.595,0.559,0.745,0.505,50173,-3.27548049989221,-45.657697860605,35.658824
"220005",2200053,"Acauã","PI",0.528,0.517,0.692,0.411,6749,-8.22078666261024,-41.0836378172387,372.31179
"220010",2200103,"Agricolândia","PI",0.599,0.55,0.742,0.526,5098,-5.79550193524498,-42.6591831974356,260.437671
"220020",2200202,"Água Branca","PI",0.639,0.6,0.763,0.569,16451,-5.8932663377521,-42.6351308599585,244.539673
"220025",2200251,"Alagoinha do Piauí","PI",0.531,0.535,0.716,0.391,7341,-7.00817527992117,-40.9346348169192,279.243746
"220027",2200277,"Alegrete do Piauí","PI",0.585,0.564,0.749,0.475,5153,-7.24534946606411,-40.8578629896146,410.888713
"220030",2200301,"Alto Longá","PI",0.585,0.567,0.751,0.47,13646,-5.25099301117907,-42.210321962161,139.762842
"220040",2200400,"Altos","PI",0.614,0.59,0.767,0.512,38822,-5.03654643417531,-42.4609480355568,190.495926
"220045",2200459,"Alvorada do Gurguéia","PI",0.578,0.52,0.749,0.496,5050,-8.44395907200948,-43.8630715789216,268.783271
"220050",2200509,"Amarante","PI",0.598,0.574,0.75,0.497,17135,-6.24661077196929,-42.8536928230327,99.814607
"220060",2200608,"Angical do Piauí","PI",0.63,0.61,0.737,0.555,6672,-6.08724169193035,-42.7438657484282,191.954129
"220070",2200707,"Anísio de Abreu","PI",0.594,0.534,0.768,0.512,9098,-9.17491853060953,-43.0348533320546,434.116067
"220080",2200806,"Antônio Almeida","PI",0.62,0.579,0.781,0.527,3039,-7.2193558337714,-44.1965353200183,251.791863
"220090",2200905,"Aroazes","PI",0.583,0.563,0.752,0.468,5779,-6.11285025606375,-41.797453338794,209.912267
"220095",2200954,"Aroeiras de Itaim","PI",0.519,0.502,0.738,0.378,2440,-7.27874546473469,-41.5632044182612,186.49511
"220100",2201002,"Arraial","PI",0.56,0.514,0.761,0.449,4688,-6.65082702726076,-42.5365666246569,144.774801
"220105",2201051,"Assunção do Piauí","PI",0.499,0.462,0.706,0.382,7503,-5.86491449433554,-41.0508299964828,474.623396
"220110",2201101,"Avelino Lopes","PI",0.554,0.532,0.722,0.442,11067,-10.134745012521,-43.9415101417959,432.625212
"220115",2201150,"Baixa Grande do Ribeiro","PI",0.564,0.537,0.751,0.446,10516,-7.85335195892974,-45.212815292567,347.98021
"220117",2201176,"Barra D'Alcântara","PI",0.577,0.526,0.777,0.471,3852,-6.51887307208077,-42.1050020825819,304.703522
"220120",2201200,"Barras","PI",0.595,0.558,0.779,0.485,44850,-4.24309335420425,-42.2953398573464,87.438924
"220130",2201309,"Barreiras do Piauí","PI",0.557,0.56,0.73,0.423,3234,-9.9212468264224,-45.4777877054503,404.970802
"220140",2201408,"Barro Duro","PI",0.612,0.611,0.729,0.514,6607,-5.81235970762555,-42.5133778221163,198.82363
"220150",2201507,"Batalha","PI",0.545,0.54,0.755,0.398,25774,-4.02041233562175,-42.075218732031,129.991938
"220155",2201556,"Bela Vista do Piauí","PI",0.576,0.52,0.709,0.519,3778,-7.97218531931235,-41.8713796439709,326.084578
"220157",2201572,"Belém do Piauí","PI",0.551,0.537,0.696,0.448,3284,-7.3701396152783,-40.9703021906942,342.967138
"220160",2201606,"Beneditinos","PI",0.557,0.561,0.78,0.394,9911,-5.44760286006179,-42.3706167024747,124.087194
"220170",2201705,"Bertolínia","PI",0.612,0.596,0.758,0.507,5319,-7.62862476285573,-43.9543877391027,290.856122
"220173",2201739,"Betânia do Piauí","PI",0.489,0.486,0.702,0.342,6015,-8.14566557703076,-40.7966219288235,479.882811
"220177",2201770,"Boa Hora","PI",0.575,0.534,0.772,0.46,6296,-4.40900960565752,-42.1252957358755,124.476374
"220180",2201804,"Bocaina","PI",0.632,0.614,0.773,0.532,4369,-6.95484233236847,-41.3223406826513,249.881029
"220190",2201903,"Bom Jesus","PI",0.668,0.665,0.799,0.562,22629,-9.07094898337957,-44.3605250848238,299.871529
"220191",2201919,"Bom Princípio do Piauí","PI",0.532,0.526,0.77,0.372,5304,-3.1898586875004,-41.6452095701255,68.665038
"220192",2201929,"Bonfim do Piauí","PI",0.542,0.542,0.707,0.415,5393,-9.16656053897752,-42.8796630650943,409.670811
"220194",2201945,"Boqueirão do Piauí","PI",0.56,0.555,0.729,0.434,6193,-4.4858196314964,-42.1036271347473,130.331695
"220196",2201960,"Brasileira","PI",0.577,0.572,0.752,0.446,7966,-4.13782910760917,-41.7892596435709,156.236691
"220198",2201988,"Brejo do Piauí","PI",0.515,0.531,0.725,0.354,3850,-8.20706476610509,-42.8303018098246,231.710911
"220200",2202000,"Buriti dos Lopes","PI",0.565,0.544,0.735,0.452,19074,-3.17272133495016,-41.8699088471231,22.208274
"220202",2202026,"Buriti dos Montes","PI",0.574,0.527,0.78,0.46,7974,-5.31206678239431,-41.1018513936703,497.173281
"220205",2202059,"Cabeceiras do Piauí","PI",0.583,0.54,0.769,0.476,9928,-4.47133129365454,-42.3083160653123,115.839307
"220207",2202075,"Cajazeiras do Piauí","PI",0.562,0.525,0.752,0.449,3343,-6.79418411732017,-42.3967272946014,157.394577
"220208",2202083,"Cajueiro da Praia","PI",0.546,0.551,0.739,0.4,7163,-2.92922717167536,-41.3471503621608,10.926697
"220209",2202091,"Caldeirão Grande do Piauí","PI",0.588,0.561,0.744,0.486,5671,-7.33155965154525,-40.6374189126801,585.144444
"220210",2202109,"Campinas do Piauí","PI",0.544,0.524,0.776,0.397,5408,-7.65477812771201,-41.8807452929818,214.72834
"220211",2202117,"Campo Alegre do Fidalgo","PI",0.537,0.528,0.762,0.385,4693,-8.37448038039266,-41.832013324158,330.162158
"220213",2202133,"Campo Grande do Piauí","PI",0.56,0.545,0.721,0.446,5592,-7.13599312001584,-41.031200960402,440.084916
"220217",2202174,"Campo Largo do Piauí","PI",0.528,0.479,0.766,0.401,6803,-3.80786893907239,-42.6260410416609,56.083022
"220220",2202208,"Campo Maior","PI",0.656,0.629,0.793,0.566,45177,-4.82911392641319,-42.16674460469,126.037101
"220225",2202251,"Canavieira","PI",0.583,0.525,0.778,0.485,3921,-7.69462155928045,-43.7194280333653,202.572078
"220230",2202307,"Canto do Buriti","PI",0.576,0.571,0.724,0.462,20020,-8.10823191945893,-42.9440210219612,262.50906
"220240",2202406,"Capitão de Campos","PI",0.583,0.552,0.773,0.465,10953,-4.45855926825117,-41.9435219724325,140.557109
"220245",2202455,"Capitão Gervásio Oliveira","PI",0.553,0.503,0.725,0.464,3878,-8.49683786811116,-41.8161163123905,339.314172
"220250",2202505,"Caracol","PI",0.552,0.533,0.771,0.409,10212,-9.27676526690461,-43.3342004507516,515.045848
"220253",2202539,"Caraúbas do Piauí","PI",0.505,0.48,0.775,0.347,5525,-3.47859053742052,-41.8412081259918,31.62185
"220255",2202554,"Caridade do Piauí","PI",0.541,0.52,0.715,0.426,4826,-7.72865238731182,-40.9903345467585,368.466331
"220260",2202604,"Castelo do Piauí","PI",0.587,0.566,0.754,0.473,18336,-5.32154387071896,-41.5473162426661,235.894423
"220265",2202653,"Caxingó","PI",0.488,0.498,0.708,0.329,5039,-3.42693840273572,-41.8826837610641,18.946713
"220270",2202703,"Cocal","PI",0.497,0.516,0.712,0.334,26036,-3.47045348957716,-41.5568448345735,131.240553
"220271",2202711,"Cocal de Telha","PI",0.555,0.55,0.78,0.399,4525,-4.55381572376658,-41.9790478739642,142.426032
"220272",2202729,"Cocal dos Alves","PI",0.498,0.504,0.779,0.315,5572,-3.60607259063565,-41.4554189108305,137.782713
"220273",2202737,"Coivaras","PI",0.565,0.543,0.732,0.453,3811,-5.09130835118702,-42.207315906284,185.026876
"220275",2202752,"Colônia do Gurguéia","PI",0.628,0.578,0.778,0.55,6036,-8.1875742160746,-43.7960171560657,227.336931
"220277",2202778,"Colônia do Piauí","PI",0.588,0.57,0.772,0.462,7433,-7.22365756371651,-42.1771185063946,198.703283
"220280",2202802,"Conceição do Canindé","PI",0.589,0.559,0.759,0.482,4475,-7.88270415361865,-41.5966339439158,255.461777
"220285",2202851,"Coronel José Dias","PI",0.546,0.518,0.725,0.433,4541,-8.81636941120373,-42.4703571012192,398.831375
"220290",2202901,"Corrente","PI",0.642,0.62,0.789,0.54,25407,-10.440936037787,-45.1633125235767,443.629042
"220300",2203008,"Cristalândia do Piauí","PI",0.573,0.521,0.77,0.469,7831,-10.6478037514554,-45.1860307001326,486.488619
"220310",2203107,"Cristino Castro","PI",0.566,0.586,0.713,0.434,9981,-8.82018628822386,-44.2244147473452,236.859155
"220320",2203206,"Curimatá","PI",0.607,0.574,0.741,0.527,10761,-10.0312924300053,-44.3007222328749,337.471062
"220323",2203230,"Currais","PI",0.542,0.49,0.743,0.438,4704,-9.01243383864447,-44.4030021530455,349.748379
"220325",2203255,"Curralinhos","PI",0.555,0.512,0.762,0.438,4183,-5.62045322917281,-42.8322105193044,168.140853
"220327",2203271,"Curral Novo do Piauí","PI",0.527,0.506,0.685,0.422,4869,-7.83079718813593,-40.9010694707015,402.785517
"220330",2203305,"Demerval Lobão","PI",0.618,0.588,0.781,0.515,13278,-5.3584654657348,-42.6742286110912,109.371522
"220335",2203354,"Dirceu Arcoverde","PI",0.561,0.563,0.718,0.436,6675,-9.335200043766,-42.4395699620089,393.542498
"220340",2203404,"Dom Expedito Lopes","PI",0.601,0.583,0.762,0.488,6569,-6.95790184246022,-41.6523852113084,403.826331
"220342",2203420,"Domingos Mourão","PI",0.55,0.547,0.755,0.403,4264,-4.25343363435254,-41.2718814488667,141.22692
"220345",2203453,"Dom Inocêncio","PI",0.549,0.498,0.756,0.439,9245,-9.00807494313575,-41.9768511187551,351.875002
"220350",2203503,"Elesbão Veloso","PI",0.58,0.573,0.758,0.45,14512,-6.20171946110874,-42.1381444495036,188.255139
"220360",2203602,"Eliseu Martins","PI",0.595,0.616,0.742,0.462,4665,-8.09646228932064,-43.6648111316973,260.112666
"220370",2203701,"Esperantina","PI",0.605,0.579,0.769,0.497,37767,-3.89560453051023,-42.2353645251038,67.880083
"220375",2203750,"Fartura do Piauí","PI",0.548,0.506,0.738,0.441,5074,-9.47860628598064,-42.7944014031782,401.142971
"220380",2203800,"Flores do Piauí","PI",0.547,0.525,0.704,0.443,4366,-7.79177560151923,-42.9243058019859,313.90046
"220385",2203859,"Floresta do Piauí","PI",0.538,0.53,0.753,0.391,2482,-7.46679537466341,-41.800314291439,212.375179
"220390",2203909,"Floriano","PI",0.7,0.676,0.802,0.633,57690,-6.76967243356518,-43.0206447383255,120.019117
"220400",2204006,"Francinópolis","PI",0.564,0.523,0.722,0.475,5235,-6.39529262237797,-42.2633660989624,246.935834
"220410",2204105,"Francisco Ayres","PI",0.577,0.565,0.756,0.45,4477,-6.6233435316889,-42.6911278448088,131.988545
"220415",2204154,"Francisco Macedo","PI",0.553,0.567,0.701,0.425,2879,-7.32787104031533,-40.7955673541325,399.543257
"220420",2204204,"Francisco Santos","PI",0.608,0.598,0.754,0.498,8592,-6.99417113731583,-41.1361573365002,262.454876
"220430",2204303,"Fronteiras","PI",0.619,0.621,0.748,0.511,11117,-7.08841253266026,-40.6172329306571,427.350641
"220435",2204352,"Geminiano","PI",0.561,0.524,0.755,0.446,5475,-7.1584176256562,-41.3575797604714,231.791406
"220440",2204402,"Gilbués","PI",0.548,0.574,0.753,0.38,10402,-9.83456990519816,-45.3469199782092,450.445901
"220450",2204501,"Guadalupe","PI",0.65,0.639,0.794,0.542,10268,-6.78524690845141,-43.5669236545324,168.484212
"220455",2204550,"Guaribas","PI",0.508,0.483,0.711,0.381,4401,-9.39511130341503,-43.687721027429,521.62762
"220460",2204600,"Hugo Napoleão","PI",0.599,0.528,0.776,0.524,3771,-5.98778789050349,-42.5625630466248,218.668575
"220465",2204659,"Ilha Grande","PI",0.563,0.534,0.708,0.472,8914,-2.85400860710324,-41.8197731840424,2.11839
"220470",2204709,"Inhuma","PI",0.624,0.562,0.772,0.56,14845,-6.66712034046153,-41.7101940564928,391.764539
"220480",2204808,"Ipiranga do Piauí","PI",0.63,0.56,0.765,0.583,9327,-6.82693267806402,-41.7399141279438,429.360468
"220490",2204907,"Isaías Coelho","PI",0.582,0.628,0.767,0.41,8221,-7.73431069640586,-41.6794480824978,252.626282
"220500",2205003,"Itainópolis","PI",0.541,0.545,0.725,0.401,11109,-7.45128081289932,-41.4800253104968,230.590589
"220510",2205102,"Itaueira","PI",0.583,0.594,0.727,0.46,10678,-7.60811663228048,-43.0254965077817,241.606698
"220515",2205151,"Jacobina do Piauí","PI",0.535,0.509,0.724,0.416,5722,-7.9362644872461,-41.2107620506702,316.097571
"220520",2205201,"Jaicós","PI",0.524,0.556,0.709,0.366,18035,-7.3531523269815,-41.1464748134968,310.566689
"220525",2205250,"Jardim do Mulato","PI",0.593,0.532,0.711,0.55,4309,-6.09657759455716,-42.6339595632103,168.391235
"220527",2205276,"Jatobá do Piauí","PI",0.566,0.525,0.78,0.442,4656,-4.77315894413206,-41.8198222185671,223.811535
"220530",2205300,"Jerumenha","PI",0.591,0.569,0.787,0.461,4390,-7.08463219364131,-43.5027430064021,150.579219
"220535",2205359,"João Costa","PI",0.561,0.51,0.752,0.46,2960,-8.48912572165371,-42.4178485806471,263.621953
"220540",2205409,"Joaquim Pires","PI",0.522,0.485,0.765,0.384,13817,-3.51310354776109,-42.1876898035533,16.715525
"220545",2205458,"Joca Marques","PI",0.504,0.501,0.726,0.353,5100,-3.48803382545111,-42.4277370789814,25.384784
"220550",2205508,"José de Freitas","PI",0.618,0.591,0.781,0.512,37085,-4.7630506393263,-42.5783745315457,130.372803
"220551",2205516,"Juazeiro do Piauí","PI",0.57,0.522,0.753,0.47,4757,-5.16137275412422,-41.7026007596661,191.540206
"220552",2205524,"Júlio Borges","PI",0.582,0.5,0.777,0.508,5373,-10.3267868133658,-44.2437006323999,424.625118
"220553",2205532,"Jurema","PI",0.555,0.511,0.767,0.435,4517,-9.22202472015696,-43.1331097430468,448.753103
"220554",2205540,"Lagoinha do Piauí","PI",0.597,0.561,0.776,0.488,2656,-5.83658344043236,-42.6273837298549,237.410052
"220555",2205557,"Lagoa Alegre","PI",0.55,0.538,0.728,0.425,8008,-4.50872974908132,-42.6167425390488,111.432814
"220556",2205565,"Lagoa do Barro do Piauí","PI",0.502,0.474,0.744,0.358,4523,-8.48243711488362,-41.530275405735,424.178786
"220557",2205573,"Lagoa de São Francisco","PI",0.529,0.499,0.743,0.4,6422,-4.39274638650902,-41.6054686902431,375.611591
"220558",2205581,"Lagoa do Piauí","PI",0.583,0.548,0.778,0.464,3863,-5.41214416944605,-42.6490132063022,112.793878
"220559",2205599,"Lagoa do Sítio","PI",0.541,0.504,0.745,0.421,4850,-6.515347629563,-41.5823863012861,441.686211
"220560",2205607,"Landri Sales","PI",0.584,0.563,0.738,0.48,5281,-7.26659997517644,-43.9310455151444,304.118358
"220570",2205706,"Luís Correia","PI",0.541,0.544,0.73,0.398,28406,-2.88156653575335,-41.6645672322748,4.84277
"220580",2205805,"Luzilândia","PI",0.545,0.55,0.7,0.42,24721,-3.46081763506681,-42.3716375238245,31.156909
"220585",2205854,"Madeiro","PI",0.563,0.472,0.772,0.489,7816,-3.48421200507606,-42.505141246491,29.288423
"220590",2205904,"Manoel Emídio","PI",0.573,0.534,0.758,0.466,5213,-8.01135867371493,-43.8754746716661,245.405068
"220595",2205953,"Marcolândia","PI",0.562,0.578,0.7,0.438,7812,-7.44355666111838,-40.6628542913824,785.37198
"220600",2206001,"Marcos Parente","PI",0.59,0.58,0.717,0.494,4456,-7.11929537721884,-43.8883140086213,283.947438
"220605",2206050,"Massapê do Piauí","PI",0.525,0.514,0.73,0.386,6220,-7.46548268423981,-41.1238546846189,240.38732
"220610",2206100,"Matias Olímpio","PI",0.562,0.521,0.779,0.438,10473,-3.71102728331688,-42.5586289027608,77.565424
"220620",2206209,"Miguel Alves","PI",0.539,0.533,0.742,0.396,32289,-4.16821558218369,-42.8931666492627,42.263206
"220630",2206308,"Miguel Leão","PI",0.623,0.579,0.782,0.533,1253,-5.68224178024984,-42.7358295252403,194.351161
"220635",2206357,"Milton Brandão","PI",0.508,0.476,0.772,0.357,6769,-4.69995347740314,-41.4479595412321,394.453341
"220640",2206407,"Monsenhor Gil","PI",0.615,0.568,0.781,0.524,10333,-5.55148563121278,-42.6173989159071,180.141878
"220650",2206506,"Monsenhor Hipólito","PI",0.561,0.591,0.739,0.404,7391,-7.00350247241766,-41.0328934036477,257.732903
"220660",2206605,"Monte Alegre do Piauí","PI",0.578,0.531,0.768,0.474,10345,-9.75583366777282,-45.2957402208575,447.659628
"220665",2206654,"Morro Cabeça no Tempo","PI",0.542,0.472,0.774,0.435,4068,-9.71931949184005,-43.9018743653614,504.15628
"220667",2206670,"Morro do Chapéu do Piauí","PI",0.55,0.536,0.742,0.418,6499,-3.74225509609687,-42.309063394959,68.051079
"220669",2206696,"Murici dos Portelas","PI",0.53,0.489,0.777,0.391,8464,-3.32385978496417,-42.096769081771,11.045333
"220670",2206704,"Nazaré do Piauí","PI",0.576,0.531,0.707,0.51,7321,-6.96712849086946,-42.6682272300917,144.887004
"220672",2206720,"Nazária","PI",0.602,0.546,0.78,0.512,8068,-5.34692499982469,-42.8140484695768,80.349361
"220675",2206753,"Nossa Senhora de Nazaré","PI",0.586,0.557,0.78,0.462,4556,-4.62693209158978,-42.1793030784653,117.973978
"220680",2206803,"Nossa Senhora dos Remédios","PI",0.533,0.503,0.732,0.411,8206,-3.99122535165338,-42.6239510484895,45.56224
"220690",2206902,"Novo Oriente do Piauí","PI",0.562,0.547,0.775,0.418,6498,-6.44940513670414,-41.928722314402,221.012254
"220695",2206951,"Novo Santo Antônio","PI",0.528,0.536,0.702,0.392,3260,-5.28605764378792,-41.9345074978553,151.976665
"220700",2207009,"Oeiras","PI",0.634,0.619,0.753,0.547,35640,-7.01641800573381,-42.1314056604251,165.783474
"220710",2207108,"Olho D'Água do Piauí","PI",0.576,0.537,0.746,0.477,2626,-5.84715857325394,-42.5785516089696,236.262367
"220720",2207207,"Padre Marcos","PI",0.541,0.531,0.699,0.427,6657,-7.35471211527857,-40.9058620823742,362.989164
"220730",2207306,"Paes Landim","PI",0.575,0.537,0.721,0.492,4059,-7.77556291425595,-42.2569576294243,199.2107
"220735",2207355,"Pajeú do Piauí","PI",0.559,0.56,0.732,0.427,3363,-7.85252009192092,-42.8169360897963,283.007275
"220740",2207405,"Palmeira do Piauí","PI",0.557,0.57,0.704,0.431,4993,-8.72950111848161,-44.2325685791726,284.88902
"220750",2207504,"Palmeirais","PI",0.562,0.515,0.776,0.443,13745,-5.97979683587477,-43.061843522875,89.78159
"220755",2207553,"Paquetá","PI",0.509,0.519,0.731,0.348,4147,-7.1014662440688,-41.7013852455649,333.679116
"220760",2207603,"Parnaguá","PI",0.575,0.526,0.777,0.464,10276,-10.2171809702131,-44.6343146131202,333.246033
"220770",2207702,"Parnaíba","PI",0.687,0.658,0.816,0.604,145705,-2.90336014441333,-41.7781705920245,6.629508
"220775",2207751,"Passagem Franca do Piauí","PI",0.561,0.594,0.758,0.393,4546,-5.85624732012702,-42.44052674629,130.497336
"220777",2207777,"Patos do Piauí","PI",0.563,0.529,0.755,0.448,6105,-7.6807639348372,-41.2522813962752,257.787199
"220779",2207793,"Pau D'Arco do Piauí","PI",0.514,0.488,0.742,0.376,3757,-5.25109342923893,-42.3888654971449,125.004642
"220780",2207801,"Paulistana","PI",0.6,0.596,0.767,0.472,19785,-8.14143613463022,-41.1470964851424,355.406823
"220785",2207850,"Pavussu","PI",0.526,0.512,0.748,0.379,3663,-7.96428695451121,-43.2217523026137,332.169547
"220790",2207900,"Pedro II","PI",0.571,0.566,0.767,0.428,37496,-4.42705526527082,-41.4585599330709,603.50329
"220793",2207934,"Pedro Laurentino","PI",0.562,0.479,0.746,0.496,2407,-8.06688259412527,-42.2860736700138,262.069516
"220795",2207959,"Nova Santa Rita","PI",0.554,0.52,0.77,0.425,4187,-8.07496471785626,-42.0482620010711,265.37532
"220800",2208007,"Picos","PI",0.698,0.684,0.8,0.621,73414,-7.0813739119682,-41.4688267146679,221.103352
"220810",2208106,"Pimenteiras","PI",0.566,0.553,0.774,0.423,11733,-6.24168840946265,-41.4151586072493,275.662796
"220820",2208205,"Pio IX","PI",0.564,0.538,0.758,0.44,17671,-6.83268730102189,-40.6182727863014,469.184117
"220830",2208304,"Piracuruca","PI",0.596,0.575,0.77,0.478,27553,-3.92928749345072,-41.7090415496498,72.237697
"220840",2208403,"Piripiri","PI",0.635,0.621,0.775,0.533,61834,-4.27606869311486,-41.7785048523536,159.245956
"220850",2208502,"Porto","PI",0.549,0.537,0.758,0.406,11897,-3.89142299490659,-42.7109259993477,41.629221
"220855",2208551,"Porto Alegre do Piauí","PI",0.563,0.539,0.732,0.452,2559,-6.97172468641863,-44.1948371018939,183.097551
"220860",2208601,"Prata do Piauí","PI",0.565,0.527,0.764,0.448,3085,-5.66479769361719,-42.2042236753317,92.171156
"220865",2208650,"Queimada Nova","PI",0.515,0.49,0.758,0.368,8553,-8.5854253466633,-41.4170249221793,434.752846
"220870",2208700,"Redenção do Gurguéia","PI",0.589,0.557,0.766,0.478,8400,-9.49344824113739,-44.5812141605608,319.969684
"220880",2208809,"Regeneração","PI",0.591,0.582,0.714,0.498,17556,-6.24018302093618,-42.6850242313083,157.11994
"220885",2208858,"Riacho Frio","PI",0.541,0.483,0.761,0.431,4241,-10.1287276878124,-44.9525300482529,420.400645
"220887",2208874,"Ribeira do Piauí","PI",0.52,0.505,0.758,0.368,4263,-7.69057550090679,-42.7140434913463,202.399425
"220890",2208908,"Ribeiro Gonçalves","PI",0.601,0.568,0.787,0.485,6845,-7.55803424472582,-45.2456386842602,213.017834
"220900",2209005,"Rio Grande do Piauí","PI",0.572,0.552,0.767,0.442,6273,-7.77085711955202,-43.1401827860102,294.871026
"220910",2209104,"Santa Cruz do Piauí","PI",0.601,0.57,0.72,0.53,6027,-7.17762649586638,-41.7619256890988,217.600465
"220915",2209153,"Santa Cruz dos Milagres","PI",0.577,0.524,0.719,0.509,3794,-5.80812099816283,-41.9584459530597,137.763874
"220920",2209203,"Santa Filomena","PI",0.544,0.53,0.789,0.385,6096,-9.10679570504101,-45.9205564410726,293.590339
"220930",2209302,"Santa Luz","PI",0.588,0.539,0.768,0.49,5513,-8.94462421660464,-44.1295859062574,329.616986
"220935",2209351,"Santana do Piauí","PI",0.574,0.539,0.736,0.476,4917,-6.94907176369757,-41.5184805579744,352.289295
"220937",2209377,"Santa Rosa do Piauí","PI",0.567,0.539,0.699,0.483,5149,-6.80145505806703,-42.2808138760659,165.062933
"220940",2209401,"Santo Antônio de Lisboa","PI",0.584,0.597,0.704,0.473,6007,-6.981848476749,-41.2337647421245,238.271321
"220945",2209450,"Santo Antônio dos Milagres","PI",0.619,0.524,0.776,0.582,2059,-6.04671759609513,-42.7111968050238,244.671987
"220950",2209500,"Santo Inácio do Piauí","PI",0.613,0.543,0.776,0.546,3648,-7.42233683713122,-41.9182128600204,224.362345
"220955",2209559,"São Braz do Piauí","PI",0.596,0.533,0.771,0.514,4313,-9.06256053557985,-42.9990725170726,482.859977
"220960",2209609,"São Félix do Piauí","PI",0.61,0.587,0.742,0.52,3069,-5.93286766279252,-42.1135025901892,132.610874
"220965",2209658,"São Francisco de Assis do Piauí","PI",0.485,0.462,0.734,0.336,5567,-8.23775474946265,-41.6895971516657,426.789234
"220970",2209708,"São Francisco do Piauí","PI",0.57,0.557,0.744,0.448,6298,-7.24397610362749,-42.5385319870053,150.57684
"220975",2209757,"São Gonçalo do Gurguéia","PI",0.56,0.572,0.701,0.438,2825,-10.0299401059094,-45.301405510563,437.275626
"220980",2209807,"São Gonçalo do Piauí","PI",0.616,0.538,0.739,0.588,4754,-5.98966743933088,-42.6988309840949,250.831589
"220985",2209856,"São João da Canabrava","PI",0.559,0.539,0.726,0.446,4445,-6.81893098928016,-41.3460536519366,279.358976
"220987",2209872,"São João da Fronteira","PI",0.515,0.516,0.753,0.351,5608,-3.93859743398578,-41.256286959289,250
"220990",2209906,"São João da Serra","PI",0.582,0.545,0.757,0.478,6157,-5.50879753759469,-41.8992637510965,168.360243
"220995",2209955,"São João da Varjota","PI",0.559,0.536,0.708,0.46,4651,-6.91901783829745,-41.8637422049467,310.464528
"220997",2209971,"São João do Arraial","PI",0.523,0.496,0.72,0.401,7336,-3.81316887349349,-42.4531261733045,98.95245
"221000",2210003,"São João do Piauí","PI",0.645,0.615,0.769,0.567,19548,-8.34884968772197,-42.2564375329406,211.524143
"221005",2210052,"São José do Divino","PI",0.565,0.529,0.775,0.44,5148,-3.80571635637436,-41.830108769217,37.626067
"221010",2210102,"São José do Peixe","PI",0.573,0.548,0.766,0.449,3700,-7.49300878066353,-42.5701794157863,173.736624
"221020",2210201,"São José do Piauí","PI",0.552,0.569,0.7,0.423,6591,-6.87062624442773,-41.4794072341782,402.782571
"221030",2210300,"São Julião","PI",0.594,0.593,0.775,0.455,5675,-7.0853150043459,-40.8369132447998,369.242885
"221035",2210359,"São Lourenço do Piauí","PI",0.595,0.56,0.753,0.499,4427,-9.17200187677997,-42.5443519903866,341.298168
"221037",2210375,"São Luis do Piauí","PI",0.554,0.52,0.757,0.433,2561,-6.8281438295415,-41.3228378191747,297.860054
"221038",2210383,"São Miguel da Baixa Grande","PI",0.563,0.557,0.774,0.413,2110,-5.86229863409585,-42.1853773737544,180.495613
"221039",2210391,"São Miguel do Fidalgo","PI",0.535,0.505,0.747,0.407,2976,-7.58496911868077,-42.3705290411912,172.247379
"221040",2210409,"São Miguel do Tapuio","PI",0.556,0.508,0.78,0.434,18134,-5.50066369894719,-41.319798489524,281.38475
"221050",2210508,"São Pedro do Piauí","PI",0.595,0.553,0.776,0.492,13639,-5.91395164636732,-42.7236601720603,295.886379
"221060",2210607,"São Raimundo Nonato","PI",0.661,0.631,0.779,0.587,32327,-9.0153604820623,-42.6922851641908,341.636719
"221062",2210623,"Sebastião Barros","PI",0.536,0.508,0.77,0.394,3560,-10.8166752202534,-44.8332841775162,545.059801
"221063",2210631,"Sebastião Leal","PI",0.562,0.516,0.736,0.467,4116,-7.57738562990497,-44.0676917696104,347.102766
"221065",2210656,"Sigefredo Pacheco","PI",0.581,0.518,0.764,0.496,9619,-4.91168916407618,-41.727559224799,246.694204
"221070",2210706,"Simões","PI",0.575,0.56,0.771,0.44,14180,-7.59913716543569,-40.8175090683555,441.954334
"221080",2210805,"Simplício Mendes","PI",0.627,0.613,0.767,0.525,12077,-7.85795729362709,-41.9109103616519,298.363565
"221090",2210904,"Socorro do Piauí","PI",0.561,0.513,0.739,0.465,4522,-7.86493805684779,-42.5046917237203,221.046518
"221093",2210938,"Sussuapara","PI",0.586,0.563,0.749,0.476,6229,-7.01701058859899,-41.392267730941,217.980033
"221095",2210953,"Tamboril do Piauí","PI",0.501,0.509,0.685,0.36,2753,-8.40043177981924,-42.909688830207,281.92883
"221097",2210979,"Tanque do Piauí","PI",0.579,0.553,0.704,0.499,2620,-6.59635346720421,-42.2839013404883,420.346776
